Last_updated,DAM_ID,Project name,Continent,Country,Main_river,Major_Basin,Capacity (MW),Ref_cap,Lat_2016,Lon_2016,Stage,Ref_stage,Start,End,Ref_time,Reference 1,Reference 2,Reference 3,Reference 4,Reference 5
Mar-15,0,Susitna-Watana,North America,United States,Susitna,Pacific and Arctic Coast 1,600.00,,62.7867720000,-148.0257800000,P,,2012,2023,,1,,,,
Mar-15,1,Site C,North America,Canada,Peace,Mackenzie,900.00,,56.2230270000,-120.9524630000,P,,2014,2020,,2,154,,,
Mar-15,2,Gull Island,North America,Canada,Churchill,Churchill,2250.00,,53.0349916667,-61.2135444444,U,,,2028,,3,155,,,
Mar-15,3,Muskrat,North America,Canada,Churchill,Churchill,824.00,,53.2456390000,-60.7727780000,U,,,2017,,3,155,,,
Mar-15,4,Conawapa,North America,Canada,Nelson,Saskatchewan - Nelson,1485.00,,56.5367720000,-94.0294650000,P,,,2022,,4,,,,
Mar-15,5,Courbe Du Sault (Sheldrake),North America,Canada,Churchill,St Lawrence,25.00,,50.2961805556,-64.7646861111,P,,,,,5,156,,,
Mar-15,6,Franquelin,North America,Canada,Manicouagan,St Lawrence,9.90,,49.2992930000,-67.9606020000,P,,,,,5,156,,,
Mar-15,8,Chutes Du Six Milles,North America,Canada,Manicouagan,St Lawrence,13.20,,48.7509055556,-69.2002694444,P,,,,,5,156,,,
Mar-15,9,Pont-Arnaud,North America,Canada,Saguenay,St Lawrence,8.00,,48.4537980000,-71.1647030000,P,,,,,5,156,,,
Mar-15,10,11E Chute (Rivière Mistassini),North America,Canada,Saguenay,St Lawrence,16.00,,49.0018440000,-72.4575810000,P,,,,,5,156,,,
Mar-15,11,Val-Jalbert,North America,Canada,Saguenay,St Lawrence,16.00,,48.3959805556,-72.1658583333,P,,,,,5,156,,,
Mar-15,12,Chute-Garneau,North America,Canada,Saguenay,St Lawrence,5.30,,48.3839220000,-71.1298370000,P,,,,,5,156,,,
Mar-15,13,Manouane Sipi,North America,Canada,St.-Maurice,St Lawrence,22.00,,47.5808833333,-73.6612944444,P,,,,,5,156,,,
Mar-15,14,Hydro-Canyon Saint-Joachim,North America,Canada,Saint John,St Lawrence,23.20,,47.0802611111,-70.8678305556,P,,,,,5,156,,,
Mar-15,15,Saint-Gabriel,North America,Canada,St.-Maurice,St Lawrence,3.30,,46.8244960000,-71.6267400000,P,,,,,5,156,,,
Mar-15,16,Chutes De Sainte-Ursule,North America,Canada,Loup,St Lawrence,1.80,,46.2933805556,-73.0838722222,P,,,,,5,156,,,
Mar-15,17,Murphy Creek,North America,Canada,Columbia,Columbia and Northwestern United States,275.00,,49.1588080000,-117.7260590000,P,,,,,6,5,,,
Mar-15,18,Elaho,North America,Canada,Fraser,Pacific and Arctic Coast 1,200.00,,50.1341250000,-123.4800420000,P,,,,,6,5,,,
Mar-15,19,Mcgregor Lower Canyon,North America,Canada,Fraser,Fraser,360.00,,54.2253230000,-121.7763680000,P,,,,,6,5,,,
Mar-15,20,Border,North America,United States,Columbia,Columbia and Northwestern United States,275.00,,48.9836200000,-117.6417320000,P,,,,,6,5,,,
Mar-15,21,Homathko River,North America,Canada,Nechako,Pacific and Arctic Coast 1,895.00,,51.4019833333,-124.5609555556,P,,,,,6,5,,,
Mar-15,22,Liard River,North America,Canada,Liard,Mackenzie,4318.00,,59.3837388889,-124.8661972222,P,,,,,6,5,,,
Mar-15,23,Iskut River,North America,Canada,Stikine,Pacific and Arctic Coast 1,980.00,,56.9690890000,-130.3373510000,P,,,,,6,5,,,
Mar-15,24,Low Site E,North America,Canada,Peace,Mackenzie,675.00,,56.1227480000,-120.0706280000,P,,,,,6,5,,,
Mar-15,25,Dunvegan,North America,Canada,Peace,Mackenzie,100.00,,55.9284430000,-118.6395350000,P,,,,,5; 7,5,,,
Mar-15,26,Little Jackfish River,North America,Canada,Nipigon,St Lawrence,78.00,,50.4014060000,-88.3114360000,P,,2013,2016,,8; 9,,,,
Mar-15,27,Keeyask,North America,Canada,Nelson,Saskatchewan - Nelson,695.00,,56.3530780000,-95.1832580000,U,,,,,10; 11,,,,
Mar-15,30,Dillingham,North America,United States,Kuskokwim,Pacific and Arctic Coast 1,3.20,,59.7947620000,-158.5529990000,P,,,,,12,,,,
Mar-15,32,Allison Creek,North America,United States,Copper,Pacific and Arctic Coast 1,6.50,,61.0506420000,-146.3524250000,P,,,,,13,157,,,
Mar-15,33,Chikuminuk Lake,North America,United States,Kuskokwim,Pacific and Arctic Coast 1,13.40,,60.1602360000,-158.7471010000,P,,,,,13,,,,
Mar-15,34,Grant Lake,North America,United States,Susitna,Pacific and Arctic Coast 1,5.00,,60.4612700000,-149.3372910000,P,,,,,13,158,,,
Mar-15,35,Ruth Lake,North America,United States,Iliamna Lake Outlet,Pacific and Arctic Coast 1,20.00,,57.5984027778,-156.1162444444,P,,,,,13,159,,,
Mar-15,36,Scenery Lake,North America,United States,Stikine,Pacific and Arctic Coast 1,30.00,,57.0796540000,-132.7892840000,P,,,,,13,160,,,
Mar-15,37,Schubee Lake,North America,United States,Chilkat / Skagway,Pacific and Arctic Coast 1,4.90,,59.3610210000,-135.3224800000,P,,,,,13,,,,
Mar-15,38,Soule,North America,United States,Skeena,Pacific and Arctic Coast 1,75.00,,55.8673694444,-130.0338166667,P,,,,,13,161,,,
Mar-15,39,Petit-Mécatina,North America,Canada,Churchill,St Lawrence,1200.00,,50.8666670000,-65.8166670000,P,,,2026,,10,162,193,,
Mar-15,40,Magpie,North America,Canada,Churchill,St Lawrence,850.00,,50.9930140000,-65.8797460000,P,,,2026,,10,163,,,
Mar-15,41,Romaine 1,North America,Canada,Natashquan,Atlantic Ocean Seaboard,290.00,,50.3835950000,-63.2603500000,U,,,2016,,14,164,194,,
Mar-15,42,Romaine 2,North America,Canada,Natashquan,Atlantic Ocean Seaboard,640.00,,50.6245290000,-63.1928020000,U,,,2014,,14,164,194,,
Mar-15,43,Romaine 3,North America,Canada,Natashquan,Atlantic Ocean Seaboard,395.00,,51.1112805556,-63.4027527778,U,,,2017,,14,164,194,,
Mar-15,44,Romaine 4,North America,Canada,Natashquan,Atlantic Ocean Seaboard,245.00,,51.3491611111,-63.4853611111,U,,,2020,,14,164,194,,
Mar-15,45,Kokish Hydro Project,North America,Canada,Nechako,Pacific and Arctic Coast 2,45.00,,50.4576055556,-126.8123888889,U,,2012,2014,,15,,,,
Mar-15,46,Pehonan,North America,Canada,Saskatchewan,Saskatchewan - Nelson,250.00,,53.2241240000,-104.6930690000,P,,2016,,,16,,,,
Mar-15,47,Amaila Falls S,South America,Guyana,Essequibo,Northeast South America[comma] South Atlantic Coast,165.00,,5.3843638889,-59.5336444444,U,,,2016,,17,165,,,
Mar-15,48,Condor Cliff,South America,Argentina,Santa Cruz,South Argentina[comma] South Atlantic Coast,1140.00,,-50.2139916667,-70.7736333333,P,,,2017,,18,166,,,
Mar-15,49,La Barrancosa,South America,Argentina,Santa Cruz,South Argentina[comma] South Atlantic Coast,600.00,,-50.1861090000,-70.1790780000,P,,,2017,,18; 19,,,,
Mar-15,50,Alvarez Condarco (A Repotenciar),South America,Argentina,Rio Rapel,South America[comma] Colorado,42.00,,-33.0467277778,-68.9965111111,P,,,,,20,,,,
Mar-15,51,Aprov. Integ. Rio Negro - Cierre Allen,South America,Argentina,Negro,Negro,170.00,,-39.0326530000,-67.8551670000,P,,,,,20,,,,
Mar-15,52,Aprov. Integ. Rio Negro - Cierre Mainque,South America,Argentina,Negro,Negro,174.40,,-39.0992930000,-67.3058510000,P,,,,,20,,,,
Mar-15,53,Aprov. Integ. Rio Negro - Cierre Plottier,South America,Argentina,Limay,Negro,102.00,,-38.9801620000,-68.2241540000,P,,,,,20,,,,
Mar-15,54,Aprov. Integ. Rio Negro - Cierre Roca,South America,Argentina,Negro,Negro,168.00,,-39.1101500000,-67.6299480000,P,,,,,20,,,,
Mar-15,55,Aprov. Integ. Rio Negro - Cierre Senillosa,South America,Argentina,Limay,Negro,101.00,,-39.0293190000,-68.4298900000,P,,,,,20,,,,
Mar-15,56,Aprov. Integ. Rio Negro - Cierre Villa Regina,South America,Argentina,Negro,Negro,172.00,,-39.1640722222,-67.1144722222,P,,,,,20,,,,
Mar-15,57,Aprovechamiento Multiple Potrerillos,South America,Argentina,Rio Rapel,South America[comma] Colorado,27.00,,-32.9292380000,-69.2173860000,P,,,,,20,,,,
Mar-15,58,Arroyo Corto,South America,Argentina,Tercero,La Plata,5.00,,-32.2162083333,-64.5602000000,P,,,,,20,,,,
Mar-15,59,Cacheuta Nueva,South America,Argentina,Rio Rapel,South America[comma] Colorado,184.60,,-33.0161666667,-69.1155583333,P,,,,,20,,,,
Mar-15,60,Cacique I,South America,Argentina,Rio Rapel,South America[comma] Colorado,2.64,,-32.9203040000,-69.1569610000,P,,,,,20,,,,
Mar-15,62,Central Del Lago,South America,Argentina,Bio-Bio,Negro,3.00,,-39.2560500000,-70.9148600000,P,,,,,20,,,,
Mar-15,63,Cerro Meson,South America,Argentina,Salado,La Plata,114.00,,-34.4856957558,-60.0020833330,P,,,,,20,,,,
Mar-15,64,Chihuido Ii,South America,Argentina,Neuquén,Negro,300.00,,-38.5893500000,-69.3558972222,P,,,,,20,,,,
Mar-15,65,Collon Cura,South America,Argentina,Limay,Negro,376.00,,-40.2977270000,-70.6661220000,P,,,,,20,,,,
Mar-15,66,Complejo Hidroel. Chilecito - Rio Agua Negra,South America,Argentina,San Juan,Salinas Grandes,1.00,,-29.2142080000,-67.6921320000,P,,,,,20,,,,
Mar-15,67,Complejo Hidroel. Chilecito - Rio Amarillo,South America,Argentina,San Juan,Salinas Grandes,3.10,,-29.1428660000,-67.4970820000,P,,,,,20,,,,
Mar-15,68,Cuesta Del Viento,South America,Argentina,San Juan,South America[comma] Colorado,8.90,,-30.2049416667,-69.0521166667,P,,,,,20,,,,
Mar-15,69,El Baqueano,South America,Argentina,Colorado,South America[comma] Colorado,202.60,,-34.5600820000,-68.8834190000,P,,,,,20,,,,
Mar-15,70,El Confin,South America,Argentina,Rio Rapel,South America[comma] Colorado,1.50,,-32.9200160000,-69.1567040000,P,,,,,20,,,,
Mar-15,71,El Dique,South America,Argentina,Rio Rapel,South America[comma] Colorado,4.50,,-33.4218527778,-69.4990805556,P,,,,,20,,,,
Mar-15,72,El Puesto,South America,Argentina,Rio Rapel,South America[comma] Colorado,1.74,,-33.9250580000,-69.2506890000,P,,,,,20,,,,
Mar-15,73,El Sapo,South America,Argentina,Rio Rapel,South America[comma] Colorado,6.00,,-33.7016416667,-69.1351666667,P,,,,,20,,,,
Mar-15,74,El Tambolar,South America,Argentina,San Juan,South America[comma] Colorado,70.00,,-31.2604944444,-69.1188611111,P,,,,,20,,,,
Mar-15,75,La Junta,South America,Argentina,Rio Rapel,South America[comma] Colorado,4.27,,-33.2366770000,-69.4943620000,P,,,,,20,,,,
Mar-15,76,Lago Espejo,South America,Argentina,Limay,Negro,4.00,,-40.6666700000,-71.7166700000,P,,,,,20,,,,
Mar-15,77,Las Piedras,South America,Argentina,Rio Rapel,South America[comma] Colorado,1.80,,-33.9252720000,-69.2506890000,P,,,,,20,,,,
Mar-15,78,Las Tres Terrazas,South America,Argentina,Rio Rapel,South America[comma] Colorado,4.50,,-33.4212000000,-69.5005166667,P,,,,,20,,,,
Mar-15,79,Los Antiguos,South America,Argentina,Deseado,South Chile[comma] Pacific Coast,2.50,,-46.6674620000,-71.5985870000,P,,,,,20,,,,
Mar-15,80,Los Blancos I,South America,Argentina,Rio Rapel,South America[comma] Colorado,324.00,,-33.8495972222,-69.4487694444,P,,,,,20,,,,
Mar-15,81,Los Blancos Ii,South America,Argentina,Rio Rapel,South America[comma] Colorado,158.00,,-33.7755833333,-69.2680972222,P,,,,,20,,,,
Mar-15,82,Manzano I,South America,Argentina,Rio Rapel,South America[comma] Colorado,2.25,,-33.9205000000,-69.3346310000,P,,,,,20,,,,
Mar-15,83,Michihuao,South America,Argentina,Limay,Negro,621.00,,-39.8146020000,-69.5400240000,P,,,,,20,,,,
Mar-15,84,Nahueve,South America,Argentina,Neuquén,Negro,4.00,,-37.1878090000,-70.6791690000,P,,,,,20,,,,
Mar-15,85,Paraná Medio - Cierre Norte Los Vascos,South America,Argentina,Cuiaba,La Plata,3065.30,,-29.4500000000,-59.5833300000,P,,,,,20,,,,
Mar-15,86,Paraná Medio - Cierre Norte Pati,South America,Argentina,Cuiaba,La Plata,3120.00,,-29.5000000000,-59.5833300000,P,,,,,20,,,,
Mar-15,87,Paraná Medio - Cierre Sur Chapeton,South America,Argentina,Cuiaba,La Plata,3000.00,,-31.5983250000,-60.3362305556,P,,,,,20,,,,
Mar-15,89,Punta Negra,South America,Argentina,San Juan,South America[comma] Colorado,62.20,,-31.5144166667,-68.8332611111,U,,2015,,,20,,,,
Mar-15,90,Rio Anisacate,South America,Argentina,Tercero,Mar Chiquita,40.00,,-31.7195888889,-64.4182611111,P,,,,,20,,,,
Mar-15,91,Rio Carrenleufu - Cierre Frontera,South America,Argentina,Chubut,South Chile[comma] Pacific Coast,80.00,,-43.5527305556,-71.7145750000,P,,,,,20,,,,
Mar-15,92,Rio Carrenleufu - Cierre Jaramillo,South America,Argentina,Chubut,South Chile[comma] Pacific Coast,24.00,,-43.7714333333,-71.2131611111,P,,,,,20,,,,
Mar-15,93,Rio Carrenleufu - Cierre La Caridad,South America,Argentina,Chubut,South Chile[comma] Pacific Coast,42.00,,-43.7501500000,-71.1948222222,P,,,,,20,,,,
Mar-15,94,Rio Carrenleufu - Cierre La Elena,South America,Argentina,Chubut,South Chile[comma] Pacific Coast,100.00,,-43.6797222222,-71.2188138889,P,,,,,20,,,,
Mar-15,95,Rio Carrenleufu - Cierre Puesto Bustos,South America,Argentina,Chubut,South Chile[comma] Pacific Coast,115.00,,-43.5278611111,-71.6677222222,P,,,,,20,,,,
Mar-15,96,Rio Chañarmuyo,South America,Argentina,Copiapó,Salinas Grandes,3.33,,-29.0036360000,-67.5127030000,P,,,,,20,,,,
Mar-15,97,Rio Frey,South America,Argentina,Chico,South Chile[comma] Pacific Coast,60.00,,-42.9022500000,-71.7262170000,P,,,,,20,,,,
Mar-15,98,Rio Grande- Cierre Bardas Blancas,South America,Argentina,Colorado,South America[comma] Colorado,120.00,,-35.8623083333,-69.8164222222,P,,,,,20,,,,
Mar-15,99,Rio Grande- Cierre La Estrechura,South America,Argentina,Colorado,South America[comma] Colorado,100.00,,-35.3184888889,-70.3005222222,P,,,,,20,,,,
Mar-15,100,Rio Hielo,South America,Argentina,Chubut,South Chile[comma] Pacific Coast,100.00,,-43.5131861111,-71.6097450000,P,,,,,20,,,,
Mar-15,101,Rio La Leona,South America,Argentina,Santa Cruz,South Argentina[comma] South Atlantic Coast,240.00,,-49.9984027778,-72.0951611111,P,,,,,20,,,,
Mar-15,102,Rio Miranda,South America,Argentina,Copiapó,Salinas Grandes,1.82,,-29.1899330000,-67.6683140000,P,,,,,20,,,,
Mar-15,103,Rio Percey,South America,Argentina,Chubut,South Chile[comma] Pacific Coast,10.00,,-43.3262080000,-71.4315610000,P,,,,,20,,,,
Mar-15,104,Rio Piray Guazu,South America,Argentina,Paraná,La Plata,69.00,,-26.4687290000,-54.6710590000,P,,,,,20,,,,
Mar-15,105,Rio Senguerr - Cierre Angostura,South America,Argentina,Chico,South Argentina[comma] South Atlantic Coast,18.20,,-45.4122550000,-69.8880630000,P,,,,,20,,,,
Mar-15,106,Rio Senguerr - Cierre La Salina,South America,Argentina,Chico,South Argentina[comma] South Atlantic Coast,200.00,,-45.6166700000,-70.8166700000,P,,,,,20,,,,
Mar-15,107,Rio Senguerr - Cierre Los Monos,South America,Argentina,Chico,South Argentina[comma] South Atlantic Coast,23.20,,-46.0053090000,-69.5020870000,P,,,,,20,,,,
Mar-15,108,Rio Senguerr - Cierre Pastos Blancos,South America,Argentina,Chico,South Argentina[comma] South Atlantic Coast,51.60,,-45.3687500000,-70.8000000000,P,,,,,20,,,,
Mar-15,109,Rio Senguerr - Cierre Tamariscos,South America,Argentina,Chico,South Argentina[comma] South Atlantic Coast,12.40,,-45.0000000000,-70.1000000000,P,,,,,20,,,,
Mar-15,110,Rio Yaboty,South America,Argentina,Uruguay,La Plata,45.00,,-27.1478900000,-53.9163890000,P,,,,,20,,,,
Mar-15,112,Segunda Angostura,South America,Argentina,Limay,Negro,120.00,,-40.9474380000,-71.0428130000,P,,,,,20,,,,
Mar-15,113,Sistema Potrero Del Clavillo,South America,Argentina,Dulce,Mar Chiquita,52.70,,-27.3990940000,-65.9665490000,P,,,,,20,,,,
Mar-15,114,Talhelum,South America,Argentina,Limay,Negro,240.00,,-39.7500000000,-70.9333300000,P,,,,,20,,,,
Mar-15,115,Valle De Uco,South America,Argentina,Rio Rapel,South America[comma] Colorado,158.00,,-33.7759430000,-69.2778600000,P,,,,,20,,,,
Mar-15,116,Zanja Del Tigre,South America,Argentina,Bermejo,La Plata,239.55,,-23.1702490000,-64.1951380000,P,,,,,20,,,,
Mar-15,117,Arenales,South America,Bolivia,Pilcomayo,La Plata,94.00,,-21.0028210000,-64.6000950000,P,,,,,265,,,,
Mar-15,118,Arrazayal,South America,Bolivia,Bermejo,La Plata,166.00,,-22.6436860000,-64.4342220000,P,,,,,265,,,,
Mar-15,120,Carrizal,South America,Bolivia,Pilcomayo,La Plata,500.00,,-20.9614240000,-65.1189050000,P,,,,,21,,,,
Mar-15,121,El Bala,South America,Bolivia,Beni,Amazon,1680.00,,-14.5472830000,-67.4987160000,P,,,,,265,,,,
Mar-15,122,El Pescado,South America,Bolivia,Pilcomayo,La Plata,202.00,,-21.1439320000,-64.3592590000,P,,,,,265,,,,
Mar-15,123,Esperanza,South America,Bolivia,Pilcomayo,La Plata,47.00,,-20.2662230000,-64.5875360000,P,,,,,265,,,,
Mar-15,124,Guajarã¡-Mirim,South America,Bolivia,Madeira,Amazon,3000.00,,-10.1660220000,-65.3060270000,P,,,,,266,,,,
Mar-15,125,Icla,South America,Bolivia,Pilcomayo,La Plata,102.00,,-19.4265730000,-64.8514240000,P,,,,,265,,,,
Mar-15,126,Las Pavas,South America,Bolivia,Bermejo,La Plata,147.00,,-22.4810080000,-64.4823250000,P,,,,,265,,,,
Mar-15,127,Machigua,South America,Bolivia,Pilcomayo,La Plata,202.00,,-20.8578780000,-64.1822250000,P,,,,,265,,,,
Mar-15,128,San Josã©,South America,Bolivia,Pilcomayo,La Plata,280.00,,-19.8079210000,-64.7049340000,P,,,,,265,,,,
Mar-15,129,Santa Elena,South America,Bolivia,Pilcomayo,La Plata,341.00,,-20.4138050000,-64.5568260000,P,,,,,265,,,,
Mar-15,130,Turuchipa,South America,Bolivia,Pilcomayo,La Plata,66.00,,-19.6393100000,-64.7870210000,P,,,,,265,,,,
Mar-15,131,Yuquirenda,South America,Bolivia,Pilcomayo,La Plata,255.00,,-21.1941200000,-63.7905340000,P,,,,,265,,,,
Mar-15,132,Abranjo Ii,South America,Brazil,Camaqua,Uruguay - Brazil[comma] South Atlantic Coast,1.75,,-30.8317000000,-52.5987000000,P,,,,,22,,,,
Mar-15,134,Morrinhos,South America,Brazil,Jaqui 1,Uruguay - Brazil[comma] South Atlantic Coast,2.25,,-30.3167640000,-51.8641730000,P,,,,,22,,,,
Mar-15,135,Rincão Ventura,South America,Brazil,Ibicuí ,La Plata,4.50,,-29.4808330000,-54.1441670000,P,,,,,22,,,,
Mar-15,136,Rincão São Miguel,South America,Brazil,Ibicuí ,La Plata,8.50,,-29.4505160000,-54.0923050000,P,,,2017,,23,,,,
Mar-15,137,Cachoeira Cinco Veados,South America,Brazil,Ibicuí ,La Plata,14.25,,-29.4188890000,-54.0491670000,P,,,2017,,23,,,,
Mar-15,138,Salto Do Guassupi,South America,Brazil,Ibicuí ,La Plata,11.00,,-29.4116670000,-54.0000000000,P,,,2015,,23,,,,
Mar-15,139,Laranjeiras,South America,Brazil,Uruguay,Uruguay - Brazil[comma] South Atlantic Coast,1.35,,-29.3838950000,-50.7494320000,P,,,,,22,,,,
Mar-15,140,Quebra Dentes,South America,Brazil,Ibicuí ,La Plata,20.00,,-29.3641670000,-54.0116670000,P,,,,,22,,,,
Mar-15,141,Olaria,South America,Brazil,Uruguay,Uruguay - Brazil[comma] South Atlantic Coast,3.20,,-29.1656860000,-52.1721390000,P,,,,,22,,,,
Mar-15,142,Vale Do Leite,South America,Brazil,Uruguay,Uruguay - Brazil[comma] South Atlantic Coast,5.20,,-29.1241730000,-52.1919530000,P,,,,,22,,,,
Mar-15,143,Vale Fundo,South America,Brazil,Uruguay,Uruguay - Brazil[comma] South Atlantic Coast,4.90,,-29.1271080000,-52.1894200000,P,,,,,22,,,,
Mar-15,144,Moinho Velho,South America,Brazil,Uruguay,Uruguay - Brazil[comma] South Atlantic Coast,3.60,,-29.1029690000,-52.2036470000,P,,,,,22,,,,
Mar-15,145,Rastro De Auto,South America,Brazil,Uruguay,Uruguay - Brazil[comma] South Atlantic Coast,7.02,,-29.0621010000,-52.2179370000,U,,,,,22,,,,
Mar-15,146,Do Bico,South America,Brazil,Uruguay,Uruguay - Brazil[comma] South Atlantic Coast,6.50,,-29.0401880000,-51.1113010000,P,,,,,22,,,,
Mar-15,147,São Jacó,South America,Brazil,Uruguay,Uruguay - Brazil[comma] South Atlantic Coast,1.20,,-29.0333330000,-51.0677780000,P,,,,,22,,,,
Mar-15,148,Foz Do Jacutinga,South America,Brazil,Uruguay,Uruguay - Brazil[comma] South Atlantic Coast,4.90,,-29.0315360000,-52.2178940000,P,,,,,22,,,,
Mar-15,149,Cazuza Ferreira (Ampliação),South America,Brazil,Uruguay,Uruguay - Brazil[comma] South Atlantic Coast,9.10,,-29.0211300000,-50.2414570000,P,,,,,22,,,,
Mar-15,150,Grotão,South America,Brazil,Uruguay,Uruguay - Brazil[comma] South Atlantic Coast,5.20,,-29.0083350000,-50.2414570000,P,,,,,22,,,,
Mar-15,151,Riachuello (Monte Bérico),South America,Brazil,Uruguay,Uruguay - Brazil[comma] South Atlantic Coast,8.70,,-29.0000000000,-51.1236110000,P,,,,,22,,,,
Mar-15,152,Santo Henrique (Santo Antônio),South America,Brazil,Uruguay,Uruguay - Brazil[comma] South Atlantic Coast,2.25,,-28.9727080000,-51.1501370000,P,,,,,22,,,,
Mar-15,153,Monte Cuco,South America,Brazil,Paraná,La Plata,30.00,,-28.9666670000,-51.9166670000,P,,,,,22,,,,
Mar-15,154,Usina Do Chapéu,South America,Brazil,Uruguay,Uruguay - Brazil[comma] South Atlantic Coast,1.90,,-28.9133330000,-50.2775000000,P,,,,,22,,,,
Mar-15,156,Pulador,South America,Brazil,Uruguay,Uruguay - Brazil[comma] South Atlantic Coast,6.40,,-28.8076080000,-52.0616240000,P,,,,,22,,,,
Mar-15,157,Pião,South America,Brazil,Uruguay,Uruguay - Brazil[comma] South Atlantic Coast,7.20,,-28.8075270000,-50.7672590000,P,,,,,22,,,,
Mar-15,158,Quebrada Funda,South America,Brazil,Uruguay,Uruguay - Brazil[comma] South Atlantic Coast,16.00,,-28.8100720000,-50.4211420000,P,,,,,22,,,,
Mar-15,159,Serra Dos Cavalinhos I,South America,Brazil,Uruguay,Uruguay - Brazil[comma] South Atlantic Coast,18.50,,-28.7951210000,-50.7061040000,P,,,,,22,,,,
Mar-15,160,Pezzi,South America,Brazil,Uruguay,Uruguay - Brazil[comma] South Atlantic Coast,20.00,,-28.7958000000,-50.5611000000,U,,,,,22,,,,
Mar-15,161,Serra Dos Cavalinhos Ii,South America,Brazil,Uruguay,Uruguay - Brazil[comma] South Atlantic Coast,24.00,,-28.7905560000,-50.7352660000,P,,,,,22,,,,
Mar-15,162,Igrejinha,South America,Brazil,Ibicuí ,La Plata,2.50,,-28.7705890000,-53.9679830000,P,,,,,22,,,,
Mar-15,163,Primavera Do Rio Turvo,South America,Brazil,Uruguay,Uruguay - Brazil[comma] South Atlantic Coast,30.00,,-28.7650820000,-51.4316090000,P,,,,,22,,,,
Mar-15,165,Fazenda Grande,South America,Brazil,Ibicuí ,La Plata,5.00,,-28.6755560000,-53.9733670000,P,,,,,22,,,,
Mar-15,166,Santo Antônio Do Jacuí,South America,Brazil,Ibicuí ,Uruguay - Brazil[comma] South Atlantic Coast,5.20,,-28.7062500000,-52.8729166670,P,,,,,22,,,,
Mar-15,167,Santa Carolina,South America,Brazil,Uruguay,Uruguay - Brazil[comma] South Atlantic Coast,10.50,,-28.6151590000,-51.4031860000,P,,,,,22,,,,
Mar-15,168,Saltinho,South America,Brazil,Uruguay,Uruguay - Brazil[comma] South Atlantic Coast,19.50,,-28.6164900000,-51.3509970000,P,,,,,22,,,,
Mar-15,169,Chimarrão,South America,Brazil,Uruguay,Uruguay - Brazil[comma] South Atlantic Coast,11.00,,-28.5599150000,-51.4007680000,P,,,,,22,,,,
Mar-15,170,Tio Hugo,South America,Brazil,Uruguay,Uruguay - Brazil[comma] South Atlantic Coast,8.10,,-28.5885190000,-52.5821860000,P,,,,,22,,,,
Mar-15,171,Touros Ii,South America,Brazil,Uruguay,La Plata,1.40,,-28.5777410000,-50.3522510000,P,,,,,22,,,,
Mar-15,172,Jardim,South America,Brazil,Uruguay,Uruguay - Brazil[comma] South Atlantic Coast,9.00,,-28.5630560000,-51.4077780000,P,,,,,22,,,,
Mar-15,173,Morro Grande,South America,Brazil,Uruguay,Uruguay - Brazil[comma] South Atlantic Coast,9.80,,-28.5599150000,-51.3102570000,P,,,,,22,,,,
Mar-15,174,Serraria,South America,Brazil,Ibicuí ,La Plata,2.30,,-28.5480750000,-53.8005430000,P,,,,,22,,,,
Mar-15,175,Touros Iii,South America,Brazil,Uruguay,La Plata,2.10,,-28.5361160000,-50.3764890000,P,,,,,22,,,,
Mar-15,176,São Pedro,South America,Brazil,Uruguay,Uruguay - Brazil[comma] South Atlantic Coast,2.30,,-28.5170690000,-51.3779630000,P,,,,,22,,,,
Mar-15,177,Tigre,South America,Brazil,Ibicuí ,La Plata,2.00,,-28.5320780000,-53.8592780000,P,,,,,22,,,,
Mar-15,178,Touros Iv,South America,Brazil,Uruguay,La Plata,5.50,,-28.5259510000,-50.4076410000,P,,,,,22,,,,
Mar-15,179,Entre Rios,South America,Brazil,Uruguay,Uruguay - Brazil[comma] South Atlantic Coast,1.80,,-28.5022500000,-51.3704980000,P,,,,,22,,,,
Mar-15,180,Touros V,South America,Brazil,Uruguay,La Plata,3.30,,-28.5026470000,-50.4250830000,P,,,,,22,,,,
Mar-15,181,Antas,South America,Brazil,Ibicuí ,La Plata,3.00,,-28.4961150000,-53.9370600000,P,,,,,22,,,,
Mar-15,182,Lajeado Bonito,South America,Brazil,Uruguay,Uruguay - Brazil[comma] South Atlantic Coast,1.20,,-28.4604170000,-51.3663650000,P,,,,,22,,,,
Mar-15,183,Santana 1,South America,Brazil,Uruguay,La Plata,3.30,,-28.4378470000,-50.7177490000,P,,,,,22,,,,
Mar-15,184,Rincão,South America,Brazil,Uruguay,La Plata,5.00,,-28.4239760000,-54.2990110000,P,,,,,22,,,,
Mar-15,185,Pessegueiro,South America,Brazil,Uruguay,La Plata,1.00,,-28.4210920000,-49.8896290000,P,,,,,22,,,,
Mar-15,186,Passo Da Cruz,South America,Brazil,Uruguay,La Plata,6.80,,-28.4085700000,-54.0343370000,P,,,,,22,,,,
Mar-15,188,Boqueirão,South America,Brazil,Uruguay,Uruguay - Brazil[comma] South Atlantic Coast,2.70,,-28.4011790000,-51.3421480000,P,,,,,22,,,,
Mar-15,189,Sede Ii,South America,Brazil,Uruguay,La Plata,7.00,,-28.3529910000,-53.8906400000,P,,,,,22,,,,
Mar-15,190,Linha 11 Oeste,South America,Brazil,Uruguay,La Plata,13.60,,-28.3361990000,-54.0280270000,P,,,,,22,,,,
Mar-15,191,São Ludgero I,South America,Brazil,Uruguay,Uruguay - Brazil[comma] South Atlantic Coast,4.50,,-28.3304480000,-49.1620470000,P,,,,,22,,,,
Mar-15,192,Santana 3 A,South America,Brazil,Uruguay,La Plata,18.00,,-28.3243530000,-50.7380000000,P,,,,,22,,,,
Mar-15,193,Despraiado,South America,Brazil,Uruguay,La Plata,2.70,,-28.3219980000,-50.8639010000,P,,,,,22,,,,
Mar-15,194,São Mateus,South America,Brazil,Uruguay,La Plata,19.00,,-28.3130740000,-50.2578070000,P,,,,,22,,,,
Mar-15,196,Fonte Ijuí,South America,Brazil,Uruguay,La Plata,5.70,,-28.3125150000,-53.8962350000,P,,,,,22,,,,
Mar-15,197,Três Marias,South America,Brazil,Uruguay,La Plata,1.10,,-28.2954060000,-50.8558750000,P,,,,,22,,,,
Mar-15,198,Santo Cristo,South America,Brazil,Uruguay,La Plata,19.50,,-28.2919000000,-50.6575000000,P,,,,,22,,,,
Mar-15,199,Passo Do Buraco,South America,Brazil,Uruguay,La Plata,1.40,,-28.2856570000,-50.8385380000,P,,,,,22,,,,
Mar-15,200,Penteado,South America,Brazil,Uruguay,La Plata,22.20,,-28.2841670000,-50.6167030000,P,,,,,22,,,,
Mar-15,201,Bela Vista,South America,Brazil,Uruguay,La Plata,3.00,,-28.2717280000,-50.8357620000,P,,,,,22,,,,
Mar-15,202,Rincão,South America,Brazil,Uruguay,La Plata,12.00,,-28.2572070000,-50.5709850000,P,,,,,22,,,,
Mar-15,203,Vassoura,South America,Brazil,Uruguay,La Plata,9.00,,-28.2471930000,-50.8134930000,P,,,,,22,,,,
Mar-15,204,Palmeiras,South America,Brazil,Uruguay,La Plata,7.00,,-28.2462700000,-53.5580890000,P,,,,,22,,,,
Mar-15,205,Antoninha,South America,Brazil,Uruguay,La Plata,13.00,,-28.2358200000,-50.2214600000,P,,,,,22,,,,
Mar-15,206,Estribo,South America,Brazil,Uruguay,La Plata,5.90,,-28.2292070000,-50.7917760000,P,,,,,22,,,,
Mar-15,207,Coxilha Rica,South America,Brazil,Uruguay,La Plata,18.00,,-28.2213890000,-50.5378140000,P,,,,,22,,,,
Mar-15,208,São José,South America,Brazil,Uruguay,Uruguay - Brazil[comma] South Atlantic Coast,2.75,,-28.2041670000,-49.1747220000,P,,,,,22,,,,
Mar-15,209,Boa Vista,South America,Brazil,Uruguay,La Plata,5.00,,-28.1960040000,-50.1730400000,P,,,,,22,,,,
Mar-15,210,Raposo,South America,Brazil,Uruguay,La Plata,6.80,,-28.1844060000,-50.4870750000,P,,,,,22,,,,
Mar-15,211,Gamba,South America,Brazil,Uruguay,La Plata,10.80,,-28.1682040000,-50.1875460000,P,,,,,22,,,,
Mar-15,212,Malacara,South America,Brazil,Uruguay,La Plata,9.20,,-28.1449660000,-50.1122710000,P,,,,,22,,,,
Mar-15,213,Rio Fortuna,South America,Brazil,Uruguay,Uruguay - Brazil[comma] South Atlantic Coast,6.85,,-28.1223560000,-49.1355950000,U,,,,,22,,,,
Mar-15,214,Pinhalzinho,South America,Brazil,Uruguay,La Plata,9.00,,-28.1208330000,-52.9936110000,P,,,,,22,,,,
Mar-15,215,Capivari,South America,Brazil,Uruguay,Uruguay - Brazil[comma] South Atlantic Coast,12.00,,-28.1160580000,-48.9722830000,U,,,,,22,,,,
Mar-15,216,Painel,South America,Brazil,Uruguay,La Plata,8.60,,-28.1131150000,-50.0820470000,P,,,,,22,,,,
Mar-15,217,Volta Grande,South America,Brazil,Uruguay,Uruguay - Brazil[comma] South Atlantic Coast,3.13,,-28.0872030000,-48.9393540000,P,,,,,22,,,,
Mar-15,218,Linha São Paulo,South America,Brazil,Uruguay,La Plata,5.00,,-28.0761530000,-53.0011430000,P,,,,,22,,,,
Mar-15,220,Nova Fátima,South America,Brazil,Uruguay,Uruguay - Brazil[comma] South Atlantic Coast,4.10,,-28.0400006000,-49.1297790000,U,,,,,22,,,,
Mar-15,221,Santa Rosa,South America,Brazil,Uruguay,Uruguay - Brazil[comma] South Atlantic Coast,6.50,,-28.0115340000,-49.1208810000,U,,,,,22,,,,
Mar-15,222,Varginha,South America,Brazil,Uruguay,Uruguay - Brazil[comma] South Atlantic Coast,2.00,,-27.9915500000,-49.1125950000,P,,,,,22,,,,
Mar-15,223,Salto Barroso,South America,Brazil,Uruguay,La Plata,11.00,,-27.9854260000,-53.0477600000,P,,,,,22,,,,
Mar-15,224,Santo Antônio,South America,Brazil,Uruguay,Uruguay - Brazil[comma] South Atlantic Coast,1.55,,-27.9769130000,-48.9561470000,P,,,,,22,,,,
Mar-15,225,São Bonifácio,South America,Brazil,Uruguay,Uruguay - Brazil[comma] South Atlantic Coast,1.91,,-27.9427640000,-48.9520630000,P,,,,,22,,,,
Mar-15,226,Cabrito,South America,Brazil,Uruguay,La Plata,12.00,,-27.8872200000,-53.0511000000,P,,,,,22,,,,
Mar-15,227,Santo Cristo I,South America,Brazil,Uruguay,La Plata,1.55,,-27.8408330000,-54.5536110000,P,,,,,22,,,,
Mar-15,228,Barracão,South America,Brazil,Uruguay,La Plata,10.70,,-27.8000960000,-51.3632530000,P,,,,,22,,,,
Mar-15,229,A - Trincheira,South America,Brazil,Uruguay,La Plata,1.75,,-27.7808070000,-54.7808070000,P,,,,,22,,,,
Mar-15,230,Pinheiro,South America,Brazil,Uruguay,La Plata,10.00,,-27.7711000000,-50.5261000000,P,,,,,22,,,,
Mar-15,231,Santo Cristo Ii,South America,Brazil,Uruguay,La Plata,2.50,,-27.7498770000,-54.6319650000,P,,,,,22,,,,
Mar-15,232,Itararé,South America,Brazil,Uruguay,La Plata,9.00,,-27.7258000000,-50.5767000000,P,,,,,22,,,,
Mar-15,234,Antônio Munhoz Bonilha,South America,Brazil,Uruguay,Uruguay - Brazil[comma] South Atlantic Coast,4.75,,-27.7152590000,-48.8313800000,P,,,,,22,,,,
Mar-15,235,João Eloi,South America,Brazil,Uruguay,Uruguay - Brazil[comma] South Atlantic Coast,1.61,,-27.7128970000,-48.8311330000,P,,,,,22,,,,
Mar-15,236,Santo Amaro,South America,Brazil,Uruguay,Uruguay - Brazil[comma] South Atlantic Coast,4.05,,-27.7058230000,-48.7984300000,P,,,,,22,,,,
Mar-15,238,Sacramento,South America,Brazil,Uruguay,Uruguay - Brazil[comma] South Atlantic Coast,1.22,,-27.6440770000,-48.8647850000,P,,,,,22,,,,
Mar-15,239,Portão,South America,Brazil,Uruguay,La Plata,16.42,,-27.6337520000,-50.7753780000,P,,,,,22,,,,
Mar-15,240,Forquilha Ii,South America,Brazil,Uruguay,La Plata,6.50,,-27.6301600000,-51.7384220000,P,,,,,22,,,,
Mar-15,241,Canto Do Schulwz,South America,Brazil,Uruguay,Uruguay - Brazil[comma] South Atlantic Coast,1.05,,-27.6279750000,-48.8440920000,P,,,,,22,,,,
Mar-15,242,Palheiros,South America,Brazil,Uruguay,La Plata,1.84,,-27.6001670000,-49.7396760000,P,,,,,22,,,,
Mar-15,243,Guarita B,South America,Brazil,Uruguay,La Plata,4.21,,-27.5786840000,-53.5801090000,P,,,,,22,,,,
Mar-15,244,Alto Garcia,South America,Brazil,Uruguay,Uruguay - Brazil[comma] South Atlantic Coast,2.00,,-27.5853710000,-49.0087330000,P,,,,,22,,,,
Mar-15,245,Ibicuí I,South America,Brazil,Uruguay,La Plata,10.00,,-27.5839210000,-51.2193690000,P,,,,,22,,,,
Mar-15,246,Pito,South America,Brazil,Uruguay,La Plata,3.70,,-27.5927080000,-51.3478790000,P,,,,,22,,,,
Mar-15,247,Taquaruçu,South America,Brazil,Uruguay,La Plata,11.00,,-27.5747000000,-53.1225000000,P,,,,,22,,,,
Mar-15,248,Bico De Pato,South America,Brazil,Uruguay,La Plata,4.60,,-27.5559190000,-53.5750520000,P,,,,,22,,,,
Mar-15,250,Linha Aparecida,South America,Brazil,Uruguay,La Plata,24.00,,-27.5308830000,-53.1271400000,P,,,,,22,,,,
Mar-15,251,Santa Maria,South America,Brazil,Uruguay,Uruguay - Brazil[comma] South Atlantic Coast,2.00,,-27.5293110000,-48.8697850000,P,,,,,22,,,,
Mar-15,252,Ibicuí Ii,South America,Brazil,Uruguay,La Plata,2.50,,-27.5086700000,-51.1905280000,P,,,,,22,,,,
Mar-15,253,Linha Jacinto,South America,Brazil,Uruguay,La Plata,17.00,,-27.4998480000,-53.1570960000,P,,,,,22,,,,
Mar-15,254,Alto Farias,South America,Brazil,Uruguay,Uruguay - Brazil[comma] South Atlantic Coast,1.20,,-27.4740790000,-48.8326400000,P,,,,,22,,,,
Mar-15,255,Turvo 14,South America,Brazil,Uruguay,La Plata,5.30,,-27.4458300000,-53.8410000000,P,,,,,22,,,,
Mar-15,257,Pira,South America,Brazil,Uruguay,La Plata,16.00,,-27.4261000000,-51.7883000000,P,,,,,22,,,,
Mar-15,258,Turvo 13,South America,Brazil,Uruguay,La Plata,7.40,,-27.4121590000,-53.8494400000,P,,,,,22,,,,
Mar-15,259,Pinheiral,South America,Brazil,Uruguay,Uruguay - Brazil[comma] South Atlantic Coast,3.19,,-27.3994050000,-49.0421700000,P,,,,,22,,,,
Mar-15,260,Estância,South America,Brazil,Uruguay,Uruguay - Brazil[comma] South Atlantic Coast,4.29,,-27.3921530000,-49.0139360000,P,,,,,22,,,,
Mar-15,261,Canta Galo,South America,Brazil,Uruguay,Uruguay - Brazil[comma] South Atlantic Coast,2.73,,-27.3928510000,-48.9969450000,P,,,,,22,,,,
Mar-15,263,Camboatá,South America,Brazil,Uruguay,La Plata,2.00,,-27.3347220000,-51.3611110000,U,,,,,22,,,,
Mar-15,264,São Valentim,South America,Brazil,Uruguay,Uruguay - Brazil[comma] South Atlantic Coast,2.45,,-27.3236990000,-49.0258900000,P,,,,,22,,,,
Mar-15,265,São Sebastião,South America,Brazil,Uruguay,Uruguay - Brazil[comma] South Atlantic Coast,3.70,,-27.3193450000,-49.0424180000,U,,,,,22,,,,
Mar-15,266,Spessato,South America,Brazil,Uruguay,La Plata,2.38,,-27.3148020000,-51.4779880000,P,,,,,22,,,,
Mar-15,267,Nova Trento,South America,Brazil,Uruguay,Uruguay - Brazil[comma] South Atlantic Coast,1.55,,-27.3165430000,-49.0734800000,U,,,,,22,,,,
Mar-15,269,Turvo 18,South America,Brazil,Uruguay,La Plata,6.40,,-27.3120000000,-53.9390000000,P,,,,,22,,,,
Mar-15,270,Santo Expedito,South America,Brazil,Uruguay,La Plata,2.25,,-27.3092960000,-51.5086950000,P,,,,,22,,,,
Mar-15,271,Barra Do Leão,South America,Brazil,Uruguay,La Plata,3.57,,-27.3001560000,-51.5525150000,P,,,,,22,,,,
Mar-15,272,Rio Dos Índios,South America,Brazil,Uruguay,La Plata,8.00,,-27.2583760000,-52.7546740000,U,,,,,22,,,,
Mar-15,274,Salto Do Soque,South America,Brazil,Uruguay,La Plata,4.40,,-27.0897430000,-51.2502410000,P,,,,,22,,,,
Mar-15,275,Apiúna,South America,Brazil,Uruguay,Uruguay - Brazil[comma] South Atlantic Coast,24.60,,-27.0791090000,-49.4420020000,P,,,,,22,,,,
Mar-15,276,Xavantina,South America,Brazil,Uruguay,La Plata,6.08,,-26.9937500000,-52.3979166670,P,,,,,22,,,,
Mar-15,277,Helena Kuhlemann,South America,Brazil,Uruguay,Uruguay - Brazil[comma] South Atlantic Coast,1.44,,-26.9901070000,-49.6764900000,U,,,,,22,,,,
Mar-15,279,Ascurra,South America,Brazil,Uruguay,Uruguay - Brazil[comma] South Atlantic Coast,11.50,,-27.1479166670,-49.8979166670,P,,,,,22,,,,
Mar-15,280,Nova Erechim,South America,Brazil,Uruguay,La Plata,18.50,,-26.8803610000,-52.8783440000,P,,,,,22,,,,
Mar-15,281,Estação Indaiál,South America,Brazil,Uruguay,Uruguay - Brazil[comma] South Atlantic Coast,27.00,,-26.8863280000,-49.2021220000,P,,,,,22,,,,
Mar-15,282,Zimlich,South America,Brazil,Uruguay,Uruguay - Brazil[comma] South Atlantic Coast,13.30,,-26.8747220000,-49.2202780000,P,,,,,22,,,,
Mar-15,283,Encano,South America,Brazil,Uruguay,Uruguay - Brazil[comma] South Atlantic Coast,12.00,,-26.8816670000,-49.1852780000,P,,,,,22,,,,
Mar-15,286,Alto Benedito Novo Ii,South America,Brazil,Uruguay,Uruguay - Brazil[comma] South Atlantic Coast,5.70,,-26.7748660000,-49.4247680000,P,,,,,22,,,,
Mar-15,287,Guarani,South America,Brazil,Uruguay,La Plata,27.53,,-26.7804300000,-52.4999950000,P,,,,,22,,,,
Mar-15,288,Ponte Serrada,South America,Brazil,Uruguay,La Plata,2.90,,-26.7734870000,-52.0351380000,P,,,,,22,,,,
Mar-15,289,Marema,South America,Brazil,Uruguay,La Plata,9.40,,-26.7659920000,-52.6011410000,P,,,,,22,,,,
Mar-15,290,Santa Maria Baixo,South America,Brazil,Uruguay,Uruguay - Brazil[comma] South Atlantic Coast,2.75,,-26.7812500000,-49.3729166670,P,,,,,22,,,,
Mar-15,291,Kaingang,South America,Brazil,Uruguay,La Plata,8.50,,-26.7621240000,-52.4914900000,P,,,,,22,,,,
Mar-15,292,Salto Donner Ii,South America,Brazil,Ribeira,Uruguay - Brazil[comma] South Atlantic Coast,2.90,,-26.7315180000,-49.4757660000,P,,,,,22,,,,
Mar-15,293,Foz Do Chapecozinho,South America,Brazil,Uruguay,La Plata,26.60,,-26.8062500000,-52.6812500000,P,,,,,22,,,,
Mar-15,294,Santa Maria,South America,Brazil,Ribeira,Uruguay - Brazil[comma] South Atlantic Coast,4.00,,-26.7604160000,-49.4031650000,P,,,,,22,,,,
Mar-15,295,Ilha,South America,Brazil,Uruguay,Uruguay - Brazil[comma] South Atlantic Coast,2.15,,-26.7827290000,-49.3997140000,P,,,,,22,,,,
Mar-15,298,Alto Pomerano,South America,Brazil,Ribeira,Uruguay - Brazil[comma] South Atlantic Coast,2.50,,-26.7015220000,-49.2871740000,P,,,,,22,,,,
Mar-15,299,Goiabeiras,South America,Brazil,Uruguay,La Plata,8.40,,-26.6961110000,-51.9941670000,P,,,,,22,,,,
Mar-15,300,Foz Do Setembro,South America,Brazil,Ribeira,Uruguay - Brazil[comma] South Atlantic Coast,1.65,,-26.6961480000,-49.3019990000,P,,,,,22,,,,
Mar-15,301,Amparo,South America,Brazil,Uruguay,La Plata,6.30,,-26.6927890000,-51.8526110000,P,,,,,22,,,,
Mar-15,303,Das Pedras,South America,Brazil,Uruguay,La Plata,5.60,,-26.6798950000,-51.7930000000,P,,,,,22,,,,
Mar-15,306,Vermelho,South America,Brazil,Uruguay,La Plata,2.80,,-26.5972220000,-52.1086110000,P,,,,,22,,,,
Mar-15,308,Garça Branca,South America,Brazil,Uruguay,La Plata,5.66,,-26.5819000000,-53.4311000000,P,,,,,22,,,,
Mar-15,309,Prainha,South America,Brazil,Uruguay,La Plata,13.00,,-26.5694440000,-52.3025000000,P,,,,,22,,,,
Mar-15,310,Abelardo Luz,South America,Brazil,Uruguay,La Plata,29.00,,-26.5625000000,-52.3383000000,P,,,,,22,,,,
Mar-15,311,Mangueira De Pedra,South America,Brazil,Uruguay,La Plata,12.06,,-26.5683550000,-52.3114640000,P,,,,,22,,,,
Mar-15,312,Tamanduá,South America,Brazil,Ivaí,La Plata,16.00,,-26.4983330000,-50.7572220000,P,,,,,22,,,,
Mar-15,313,Baitaca,South America,Brazil,Ivaí,La Plata,2.70,,-26.4444440000,-50.8416670000,U,,,,,22,,,,
Mar-15,314,Cabeça De Tigre,South America,Brazil,Ribeira,Uruguay - Brazil[comma] South Atlantic Coast,1.32,,-26.4406500000,-49.3787650000,P,,,,,22,,,,
Mar-15,315,Ribeirão Dos Correias,South America,Brazil,Ribeira,Uruguay - Brazil[comma] South Atlantic Coast,2.65,,-26.4375980000,-49.3716450000,P,,,,,22,,,,
Mar-15,316,Bruaca,South America,Brazil,Ribeira,Uruguay - Brazil[comma] South Atlantic Coast,15.00,,-26.4237300000,-49.3927020000,P,,,,,22,,,,
Mar-15,317,Escola Rio Natal,South America,Brazil,Ribeira,Uruguay - Brazil[comma] South Atlantic Coast,2.35,,-26.3740000000,-49.2830000000,P,,,,,22,,,,
Mar-15,318,Rio Das Pacas,South America,Brazil,Ribeira,Uruguay - Brazil[comma] South Atlantic Coast,1.20,,-26.3680000000,-49.3000000000,P,,,,,22,,,,
Mar-15,319,Rabo Do Macaco,South America,Brazil,Ribeira,Uruguay - Brazil[comma] South Atlantic Coast,3.20,,-26.3530000000,-49.3180000000,P,,,,,22,,,,
Mar-15,320,Rancho Grande,South America,Brazil,Uruguay,La Plata,17.70,,-26.3194000000,-52.1661000000,P,,,,,22,,,,
Mar-15,321,Alto Chopim,South America,Brazil,Uruguay,La Plata,20.34,,-26.3125290000,-52.0856100000,P,,,,,22,,,,
Mar-15,322,Santa Lídia,South America,Brazil,Ivaí,La Plata,13.20,,-26.2990000000,-51.2670000000,P,,,,,22,,,,
Mar-15,323,Faxinal Dos Santos,South America,Brazil,Ivaí,La Plata,14.40,,-26.2833330000,-51.6000000000,P,,,,,22,,,,
Mar-15,324,Paiol Grande,South America,Brazil,Ivaí,La Plata,12.00,,-26.2666670000,-51.6500000000,P,,,,,22,,,,
Mar-15,325,Salto Do Jardim Montante,South America,Brazil,Ivaí,La Plata,16.20,,-26.2427000000,-51.2680000000,P,,,,,22,,,,
Mar-15,326,Vista Alegre,South America,Brazil,Ivaí,La Plata,12.70,,-26.2413890000,-51.7783330000,P,,,,,22,,,,
Mar-15,327,Catanduva,South America,Brazil,Ivaí,La Plata,17.60,,-26.2006310000,-51.8085510000,P,,,,,22,,,,
Mar-15,328,Engenho Velho,South America,Brazil,Ivaí,La Plata,10.10,,-26.1500000000,-51.8666670000,P,,,,,22,,,,
Mar-15,329,Foz Do Estrela,South America,Brazil,Ivaí,La Plata,29.80,,-26.0988080000,-51.8751730000,P,,,,,22,,,,
Mar-15,330,Km 34 (Vitorino Iii),South America,Brazil,Uruguay,La Plata,3.30,,-26.0741670000,-52.8279090000,P,,,,,22,,,,
Mar-15,331,Nova Riqueza,South America,Brazil,Uruguay,La Plata,2.60,,-26.0675000000,-53.5394440000,P,,,,,22,,,,
Mar-15,333,Vila Galupo,South America,Brazil,Uruguay,La Plata,5.10,,-26.0514920000,-52.9248830000,P,,,,,22,,,,
Mar-15,334,Tigre,South America,Brazil,Ivaí,La Plata,9.00,,-26.0354166670,-51.1854166670,P,,,,,22,,,,
Mar-15,335,Km 22 (Vitorino Ii),South America,Brazil,Uruguay,La Plata,2.30,,-26.0484760000,-52.8016200000,P,,,,,22,,,,
Mar-15,336,Linha Sarandi,South America,Brazil,Uruguay,La Plata,2.70,,-26.0460540000,-53.5320580000,P,,,,,22,,,,
Mar-15,338,Bom Retiro,South America,Brazil,Ivaí,La Plata,3.50,,-26.0336110000,-52.0827780000,P,,,,,22,,,,
Mar-15,339,Salto Da Barra,South America,Brazil,Ivaí,La Plata,6.00,,-26.0206000000,-52.0903270000,P,,,,,22,,,,
Mar-15,340,Alto Paraíso,South America,Brazil,Paraná,La Plata,2.75,,-25.9963890000,-53.5400000000,P,,,,,22,,,,
Mar-15,341,Canhadão,South America,Brazil,Ivaí,La Plata,10.00,,-25.9788890000,-52.2170000000,P,,,,,22,,,,
Mar-15,342,Covó,South America,Brazil,Ivaí,La Plata,5.00,,-25.9730560000,-52.1502780000,P,,,,,22,,,,
Mar-15,343,Amperé,South America,Brazil,Paraná,La Plata,8.00,,-25.9390000000,-53.5660000000,P,,,,,22,,,,
Mar-15,344,Foz,South America,Brazil,Uruguay,La Plata,6.00,,-25.9230670000,-52.8702640000,P,,,,,22,,,,
Mar-15,345,Coxilha Bonita,South America,Brazil,Paraná,La Plata,5.30,,-25.8852780000,-53.5836110000,P,,,,,22,,,,
Mar-15,347,Vasco Da Gama,South America,Brazil,Paraná,La Plata,3.50,,-25.8366670000,-53.5772220000,P,,,,,22,,,,
Mar-15,348,Tamanduá,South America,Brazil,Ribeira,Uruguay - Brazil[comma] South Atlantic Coast,4.30,,-25.8308330000,-48.9605560000,P,,,,,22,,,,
Mar-15,349,Foz Do Turvo,South America,Brazil,Ivaí,La Plata,8.80,,-25.8283000000,-51.3092000000,P,,,,,22,,,,
Mar-15,350,Castelhano,South America,Brazil,Ribeira,Uruguay - Brazil[comma] South Atlantic Coast,3.20,,-25.8197220000,-48.8983330000,P,,,,,22,,,,
Mar-15,351,Itararé,South America,Brazil,Ribeira,Uruguay - Brazil[comma] South Atlantic Coast,4.50,,-25.8177780000,-48.9344440000,P,,,,,22,,,,
Mar-15,352,Quati,South America,Brazil,Ribeira,Uruguay - Brazil[comma] South Atlantic Coast,15.00,,-25.8111110000,-48.8766670000,P,,,,,22,,,,
Mar-15,353,Bela Vista,South America,Brazil,Uruguay,La Plata,29.00,,-25.8069440000,-52.8986110000,P,,,,,22,,,,
Mar-15,354,Jaquatirica,South America,Brazil,Ribeira,Uruguay - Brazil[comma] South Atlantic Coast,13.80,,-25.8000000000,-48.8333330000,P,,,,,22,,,,
Mar-15,355,Burro Branco,South America,Brazil,Ivaí,La Plata,10.00,,-25.8022220000,-51.2547220000,P,,,,,22,,,,
Mar-15,356,Guaratuba,South America,Brazil,Ribeira,Uruguay - Brazil[comma] South Atlantic Coast,9.20,,-25.7791670000,-48.8655560000,P,,,,,22,,,,
Mar-15,357,Linha Capanema,South America,Brazil,Paraná,La Plata,4.50,,-25.7732990000,-53.6076410000,P,,,,,22,,,,
Mar-15,358,Onça Pintada,South America,Brazil,Ribeira,Uruguay - Brazil[comma] South Atlantic Coast,2.20,,-25.7616670000,-48.8783330000,P,,,,,22,,,,
Mar-15,359,Arraial,South America,Brazil,Ribeira,Uruguay - Brazil[comma] South Atlantic Coast,5.40,,-25.7469440000,-48.9261110000,P,,,,,22,,,,
Mar-15,360,Palmito,South America,Brazil,Ribeira,Uruguay - Brazil[comma] South Atlantic Coast,6.00,,-25.7311110000,-48.9444440000,P,,,,,22,,,,
Mar-15,361,Matão,South America,Brazil,Ivaí,La Plata,5.50,,-25.7244440000,-51.2230560000,P,,,,,22,,,,
Mar-15,362,São Jerônimo,South America,Brazil,Ivaí,La Plata,15.00,,-25.6661110000,-51.4700000000,P,,,,,22,,,,
Mar-15,363,Volta Grande,South America,Brazil,Ivaí,La Plata,3.70,,-25.6522220000,-51.5913890000,P,,,,,22,,,,
Mar-15,364,Pinhal Ralo,South America,Brazil,Ivaí,La Plata,5.70,,-25.5988210000,-51.7515290000,P,,,,,22,,,,
Mar-15,365,Lúcia Cherobim,South America,Brazil,Ivaí,La Plata,25.50,,-25.5187500000,-50.8333330000,P,,,,,22,,,,
Mar-15,366,Taguá,South America,Brazil,Ivaí,La Plata,6.70,,-25.5164680000,-51.7763280000,P,,,,,22,,,,
Mar-15,368,Cavernoso Iii,South America,Brazil,Ivaí,La Plata,8.20,,-25.4794190000,-52.1926230000,P,,,,,22,,,,
Mar-15,369,Esperança,South America,Brazil,Ivaí,La Plata,3.20,,-25.4652900000,-51.7043850000,P,,,,,22,,,,
Mar-15,372,Km 19,South America,Brazil,Ivaí,La Plata,7.60,,-25.1338300000,-50.9409600000,P,,,,,22,,,,
Mar-15,373,Km 14,South America,Brazil,Ivaí,La Plata,4.50,,-25.1000000000,-50.9333330000,P,,,,,22,,,,
Mar-15,374,São João,South America,Brazil,Ivaí,La Plata,21.00,,-25.0835730000,-51.0021770000,P,,,,,22,,,,
Mar-15,375,Km 10,South America,Brazil,Ivaí,La Plata,2.80,,-25.0702780000,-50.9444440000,P,,,,,22,,,,
Mar-15,376,Pardinho I,South America,Brazil,Ribeira,Uruguay - Brazil[comma] South Atlantic Coast,7.03,,-25.0187500000,-48.5895833330,P,,,,,22,,,,
Mar-15,377,A (Eixo I /Caratuva),South America,Brazil,Ribeira,Uruguay - Brazil[comma] South Atlantic Coast,10.00,,-24.9743730000,-49.5921260000,P,,,,,22,,,,
Mar-15,378,Usina B (Eixo Iii),South America,Brazil,Ribeira,Uruguay - Brazil[comma] South Atlantic Coast,6.20,,-24.9641670000,-49.5805560000,P,,,,,22,,,,
Mar-15,379,Paredinha,South America,Brazil,Ivaí,La Plata,4.20,,-24.9277780000,-51.4191670000,P,,,,,22,,,,
Mar-15,380,C (Eixo Ix/Água Branca),South America,Brazil,Ribeira,Uruguay - Brazil[comma] South Atlantic Coast,22.00,,-24.9244440000,-49.5419440000,P,,,,,22,,,,
Mar-15,381,Confluência,South America,Brazil,Ivaí,La Plata,20.00,,-24.9189000000,-51.4083000000,P,,,,,22,,,,
Mar-15,382,Marrecas,South America,Brazil,Ivaí,La Plata,4.70,,-24.8647220000,-51.3633330000,P,,,,,22,,,,
Mar-15,383,Tesouro,South America,Brazil,Paraná,La Plata,2.20,,-24.8436830000,-53.2729530000,P,,,,,22,,,,
Mar-15,384,Salto Da Banana,South America,Brazil,Ivaí,La Plata,2.00,,-24.7860120000,-51.5608040000,P,,,,,22,,,,
Mar-15,385,Santa Rita,South America,Brazil,Ivaí,La Plata,4.45,,-24.7743730000,-51.4297300000,P,,,,,22,,,,
Mar-15,386,Cantu 1,South America,Brazil,Ivaí,La Plata,15.00,,-24.7647070000,-52.5873080000,P,,,,,22,,,,
Mar-15,387,Ribeirão Bonito (Ex-C),South America,Brazil,Ribeira,Uruguay - Brazil[comma] South Atlantic Coast,6.10,,-24.7591670000,-49.3347220000,P,,,,,22,,,,
Mar-15,388,Nova Esperança,South America,Brazil,Paraná,La Plata,4.50,,-24.7558330000,-53.1402780000,P,,,,,22,,,,
Mar-15,389,Cantu 2,South America,Brazil,Ivaí,La Plata,18.00,,-24.7458000000,-52.4681000000,P,,,,,22,,,,
Mar-15,390,Das Almas,South America,Brazil,Ribeira,Uruguay - Brazil[comma] South Atlantic Coast,6.30,,-24.7377780000,-49.3791670000,P,,,,,22,,,,
Mar-15,391,Castro,South America,Brazil,Ribeira,La Plata,4.20,,-24.7377780000,-50.1183330000,P,,,,,22,,,,
Mar-15,392,Cinco Cantos,South America,Brazil,Paraná,La Plata,6.30,,-24.7375000000,-54.0125000000,P,,,,,22,,,,
Mar-15,393,Cantu 3,South America,Brazil,Ivaí,La Plata,7.00,,-24.7338890000,-52.3780560000,P,,,,,22,,,,
Mar-15,394,Cantu 4,South America,Brazil,Ivaí,La Plata,7.00,,-24.7294440000,-52.2941670000,P,,,,,22,,,,
Mar-15,395,Tuneiras Ii,South America,Brazil,Ivaí,La Plata,2.50,,-24.7172010000,-51.5313800000,P,,,,,22,,,,
Mar-15,396,Pulo,South America,Brazil,Ribeira,La Plata,7.30,,-24.7175000000,-50.1400000000,P,,,,,22,,,,
Mar-15,397,São Jorge I,South America,Brazil,Ivaí,La Plata,2.50,,-24.7093560000,-51.5243140000,P,,,,,22,,,,
Mar-15,398,Lajeado,South America,Brazil,Paraná,La Plata,4.60,,-24.7088890000,-53.1422220000,P,,,,,22,,,,
Mar-15,399,Itaoca,South America,Brazil,Ribeira,Uruguay - Brazil[comma] South Atlantic Coast,30.00,,-24.6929680000,-48.7809940000,P,,,,,22,,,,
Mar-15,401,Fazenda Da Onça,South America,Brazil,Paraná,La Plata,4.10,,-24.6869440000,-53.1225000000,P,,,,,22,,,,
Mar-15,402,Fazenda Do Salto,South America,Brazil,Paraná,La Plata,8.00,,-24.6388890000,-53.0930560000,P,,,,,22,,,,
Mar-15,403,Guartelá,South America,Brazil,Ribeira,La Plata,4.40,,-24.5202780000,-50.2963890000,P,,,,,22,,,,
Mar-15,404,Iapó,South America,Brazil,Ribeira,La Plata,18.00,,-24.5088840000,-50.3118610000,P,,,,,22,,,,
Mar-15,405,Catas Altas Iii,South America,Brazil,Ribeira,Uruguay - Brazil[comma] South Atlantic Coast,2.50,,-24.4831640000,-49.1138980000,P,,,,,22,,,,
Mar-15,406,Fortaleza,South America,Brazil,Ivaí,La Plata,9.85,,-24.4830560000,-50.3733330000,P,,,,,22,,,,
Mar-15,407,Pioneiros,South America,Brazil,Ribeira,La Plata,3.30,,-24.4547220000,-50.3336110000,P,,,,,22,,,,
Mar-15,408,Lajeado,South America,Brazil,Ribeira,La Plata,1.25,,-24.4408330000,-50.3052780000,P,,,,,22,,,,
Mar-15,409,Rincão Da Ponte,South America,Brazil,Ribeira,La Plata,4.50,,-24.4394440000,-50.2850000000,P,,,,,22,,,,
Mar-15,410,Praia Das Vacas,South America,Brazil,Ribeira,La Plata,1.65,,-24.4291670000,-50.1930560000,P,,,,,22,,,,
Mar-15,411,Torre De Pedra,South America,Brazil,Ribeira,La Plata,2.70,,-24.4255560000,-50.2286110000,P,,,,,22,,,,
Mar-15,412,Jataí,South America,Brazil,Paraná,La Plata,3.70,,-24.4219440000,-54.0530560000,P,,,,,22,,,,
Mar-15,413,Moinho,South America,Brazil,Paraná,La Plata,3.70,,-24.4217780000,-54.0271880000,P,,,,,22,,,,
Mar-15,414,Serra Das Furnas,South America,Brazil,Ribeira,La Plata,5.80,,-24.2236110000,-49.9550000000,P,,,,,22,,,,
Mar-15,415,Água Bonita,South America,Brazil,Ribeira,La Plata,4.20,,-24.1822220000,-49.9422220000,P,,,,,22,,,,
Mar-15,416,Água Limpa Multifase,South America,Brazil,Paraná,La Plata,23.00,,-24.1238890000,-53.3247220000,P,,,,,22,,,,
Mar-15,417,Saltinho,South America,Brazil,Ivaí,La Plata,4.50,,-24.0319440000,-52.2683330000,P,,,,,22,,,,
Mar-15,418,Água Tranquila,South America,Brazil,Ivaí,La Plata,4.20,,-23.9344440000,-53.0813890000,P,,,,,22,,,,
Mar-15,419,Peabiru,South America,Brazil,Ivaí,La Plata,4.30,,-23.9166670000,-52.2500000000,P,,,,,22,,,,
Mar-15,420,Sete Quedas I,South America,Brazil,Jejui Guazu,La Plata,10.00,,-23.8742730000,-55.0042520000,P,,,,,22,,,,
Mar-15,421,Foz Da Anta,South America,Brazil,Paranápanema,La Plata,12.00,,-23.8533330000,-49.9577780000,P,,,,,22,,,,
Mar-15,422,Eng° Beltrão,South America,Brazil,Ivaí,La Plata,5.20,,-23.8490000000,-52.2433330000,P,,,,,22,,,,
Mar-15,423,Da Barra,South America,Brazil,Ivaí,La Plata,8.60,,-23.7233330000,-52.1291670000,P,,,,,22,,,,
Mar-15,424,Camburu,South America,Brazil,Paraiba,Uruguay - Brazil[comma] South Atlantic Coast,30.00,,-23.6609940000,-45.5420570000,P,,,,,22,,,,
Mar-15,425,Santa Helena,South America,Brazil,Velhas,Sao Francisco,4.00,,-17.7555550000,-44.4730550000,P,,,,,22,,,,
Mar-15,426,Rio Dos Índios,South America,Brazil,Ivaí,La Plata,8.30,,-23.4797130000,-52.6158790000,P,,,,,22,,,,
Mar-15,427,Guaraú,South America,Brazil,Tietê,La Plata,5.80,,-23.3291530000,-46.6789780000,P,,,,,22,,,,
Mar-15,429,Nova Fátima,South America,Brazil,Paranápanema,La Plata,3.92,,-23.4327780000,-50.4350000000,P,,,,,22,,,,
Mar-15,430,Laranjinha,South America,Brazil,Paranápanema,La Plata,3.24,,-23.4138890000,-50.4511110000,P,,,,,22,,,,
Mar-15,431,Bom Progresso,South America,Brazil,Ivaí,La Plata,1.05,,-23.4010000000,-51.6450000000,P,,,,,22,,,,
Mar-15,433,Paranáguá,South America,Brazil,Ivaí,La Plata,1.10,,-23.3770000000,-51.7020000000,P,,,,,22,,,,
Mar-15,434,Piraí I,South America,Brazil,Tietê,La Plata,23.00,,-23.3689580000,-47.1019430000,P,,,,,22,,,,
Mar-15,435,Guaxatuba,South America,Brazil,Tietê,La Plata,12.20,,-23.3370000000,-47.1690000000,P,,,,,22,,,,
Mar-15,436,Bonanza,South America,Brazil,Paranápanema,La Plata,9.90,,-23.3155560000,-50.4872220000,P,,,,,22,,,,
Mar-15,437,Maringá,South America,Brazil,Ivaí,La Plata,1.56,,-23.3046250000,-51.8930310000,P,,,,,22,,,,
Mar-15,438,Pedra Azul,South America,Brazil,Tietê,La Plata,30.00,,-23.2850000000,-47.2200000000,P,,,,,22,,,,
Mar-15,440,Torrão De Ouro,South America,Brazil,Paranápanema,La Plata,8.00,,-23.2497220000,-50.4708330000,P,,,,,22,,,,
Mar-15,441,Jurumirim (Salgueiro),South America,Brazil,Tietê,La Plata,27.00,,-23.2180560000,-47.2836110000,P,,,,,22,,,,
Mar-15,442,Porto Feliz,South America,Brazil,Tietê,La Plata,16.60,,-23.1740000000,-47.5150000000,P,,,,,22,,,,
Mar-15,443,São João,South America,Brazil,Tietê,La Plata,9.60,,-23.1145833330,-47.9937500000,P,,,,,22,,,,
Mar-15,444,Monte Serrat,South America,Brazil,Tietê,La Plata,1.20,,-23.1400000000,-47.0880000000,P,,,,,22,,,,
Mar-15,445,Quilombo I,South America,Brazil,Tietê,La Plata,2.50,,-23.1350000000,-47.1120000000,P,,,,,22,,,,
Mar-15,446,Santa Mariana,South America,Brazil,Paranápanema,La Plata,6.70,,-23.0929800000,-50.4622900000,P,,,,,22,,,,
Mar-15,447,Tietê,South America,Brazil,Tietê,La Plata,12.80,,-23.0830560000,-47.6769440000,P,,,,,22,,,,
Mar-15,448,Salto Bandeirantes,South America,Brazil,Paranápanema,La Plata,4.20,,-22.9855434693,-51.8227898637,P,,,,,22,,,,
Mar-15,449,Santana,South America,Brazil,Paranápanema,La Plata,12.70,,-22.9682910000,-49.7894000000,P,,,,,22,,,,
Mar-15,450,Salto Grande,South America,Brazil,Paranápanema,La Plata,5.20,,-22.9678330000,-52.0339110000,P,,,,,22,,,,
Mar-15,451,Estrelinha,South America,Brazil,Paranápanema,La Plata,2.80,,-22.9622840000,-48.7827580000,P,,,,,22,,,,
Mar-15,452,Figueira Branca,South America,Brazil,Paranápanema,La Plata,10.80,,-22.9057720000,-49.4635560000,P,,,,,22,,,,
Mar-15,453,Paraitinga,South America,Brazil,Paraiba,Uruguay - Brazil[comma] South Atlantic Coast,7.00,,-22.9333810000,-44.9872460000,P,,,,,22,,,,
Mar-15,454,Niágara,South America,Brazil,Paranápanema,La Plata,11.90,,-22.8864680000,-49.3846950000,P,,,,,22,,,,
Mar-15,455,Ponte Branca,South America,Brazil,Paranápanema,La Plata,10.50,,-22.8750010000,-49.2152830000,P,,,,,22,,,,
Mar-15,456,Foz Dos Bandeirantes,South America,Brazil,Paranápanema,La Plata,4.70,,-22.8745880000,-52.0669110000,P,,,,,22,,,,
Mar-15,457,Água Da Onça,South America,Brazil,Paranápanema,La Plata,5.10,,-22.8479310000,-49.1228790000,P,,,,,22,,,,
Mar-15,458,Extrema,South America,Brazil,Paraiba,La Plata,2.39,,-22.8452780000,-46.2658330000,P,,,,,22,,,,
Mar-15,459,São Francisco,South America,Brazil,Paranápanema,La Plata,7.00,,-22.8449840000,-49.1566300000,P,,,,,22,,,,
Mar-15,460,Do Tombo,South America,Brazil,Paraiba,La Plata,13.73,,-22.8325000000,-46.1302780000,P,,,,,22,,,,
Mar-15,461,Itapeva,South America,Brazil,Paraiba,La Plata,3.06,,-22.8316670000,-46.2277780000,P,,,,,22,,,,
Mar-15,462,Camanducaia,South America,Brazil,Paraiba,La Plata,3.62,,-22.8233330000,-46.1841670000,P,,,,,22,,,,
Mar-15,463,Quilombo,South America,Brazil,Paraiba,La Plata,3.32,,-22.8187500000,-46.1605560000,P,,,,,22,,,,
Mar-15,464,Japonesa,South America,Brazil,Paranápanema,La Plata,8.40,,-22.7891920000,-52.0891950000,P,,,,,22,,,,
Mar-15,466,Fazenda Santana,South America,Brazil,Paraiba,Uruguay - Brazil[comma] South Atlantic Coast,9.60,,-22.7788890000,-44.2147220000,P,,,,,22,,,,
Mar-15,467,Juncal,South America,Brazil,Paraiba,La Plata,1.55,,-22.7638890000,-45.9708330000,P,,,,,22,,,,
Mar-15,468,Lídice,South America,Brazil,Paraiba,Uruguay - Brazil[comma] South Atlantic Coast,3.50,,-22.8005560000,-44.2436110000,P,,,,,22,,,,
Mar-15,469,Córrego Fundo,South America,Brazil,Paranápanema,La Plata,10.00,,-22.7036110000,-52.0486110000,P,,,,,22,,,,
Mar-15,470,Itaguajé,South America,Brazil,Paranápanema,La Plata,5.00,,-22.6155190000,-51.9988530000,P,,,,,22,,,,
Mar-15,471,Chalé,South America,Brazil,Paraiba,Uruguay - Brazil[comma] South Atlantic Coast,18.96,,-22.5666670000,-44.9133330000,P,,,,,22,,,,
Mar-15,473,Rio Manso,South America,Brazil,Paraiba,La Plata,2.53,,-22.3745500000,-45.3658930000,P,,,,,22,,,,
Mar-15,474,Saltinho,South America,Brazil,Pardo,La Plata,4.50,,-22.3041290000,-46.7942870000,P,,,,,22,,,,
Mar-15,475,Eleutério (Rio Euletério),South America,Brazil,Pardo,La Plata,1.50,,-22.2895833330,-46.7729166670,P,,,,,22,,,,
Mar-15,476,Secretário,South America,Brazil,Paraiba,Uruguay - Brazil[comma] South Atlantic Coast,3.70,,-22.2988030000,-43.1771390000,P,,,,,22,,,,
Mar-15,477,Posse,South America,Brazil,Paraiba,Uruguay - Brazil[comma] South Atlantic Coast,15.80,,-22.2862640000,-43.0998900000,P,,,,,22,,,,
Mar-15,478,Eleutério,South America,Brazil,Pardo,La Plata,5.25,,-22.2847680000,-46.7646520000,P,,,,,22,,,,
Mar-15,479,Nova Pinhal,South America,Brazil,Pardo,La Plata,2.75,,-22.2796373392,-46.7604166670,P,,,,,22,,,,
Mar-15,480,Rolador,South America,Brazil,Pardo,La Plata,3.30,,-22.2666670000,-46.6500000000,P,,,,,22,,,,
Mar-15,482,Cachoeira Da Fumaça,South America,Brazil,Grande,Uruguay - Brazil[comma] South Atlantic Coast,18.00,,-22.2500000000,-44.3500000000,P,,,,,22,,,,
Mar-15,483,Providência,South America,Brazil,Paraiba,Uruguay - Brazil[comma] South Atlantic Coast,5.00,,-22.2660000000,-42.9000000000,P,,,,,22,,,,
Mar-15,485,Monte Alegre,South America,Brazil,Paraiba,Uruguay - Brazil[comma] South Atlantic Coast,18.60,,-22.2333000000,-43.1167000000,P,,,,,22,,,,
Mar-15,489,Cristina,South America,Brazil,Paraiba,La Plata,3.50,,-22.1583000000,-45.2805560000,U,,,,,22,,,,
Mar-15,491,Conde D'Eu,South America,Brazil,Paraiba,Uruguay - Brazil[comma] South Atlantic Coast,9.60,,-22.1515430000,-42.6635410000,P,,,,,22,,,,
Mar-15,492,Batatal,South America,Brazil,Paraiba,Uruguay - Brazil[comma] South Atlantic Coast,3.30,,-22.0895831672,-42.6562501657,P,,,,,22,,,,
Mar-15,493,Santa Rosa I,South America,Brazil,Paraiba,Uruguay - Brazil[comma] South Atlantic Coast,17.30,,-22.0652700000,-43.5058300000,P,,,,,22,,,,
Mar-15,494,Sôssego,South America,Brazil,Paraiba,Uruguay - Brazil[comma] South Atlantic Coast,9.00,,-22.0446490000,-42.2505390000,P,,,,,22,,,,
Mar-15,495,Rezende,South America,Brazil,Paraiba,Uruguay - Brazil[comma] South Atlantic Coast,2.40,,-22.0627420000,-43.7646390000,P,,,,,22,,,,
Mar-15,496,Alça,South America,Brazil,Paraiba,Uruguay - Brazil[comma] South Atlantic Coast,1.30,,-22.0386110000,-43.7397220000,P,,,,,22,,,,
Mar-15,497,Engenho Novo,South America,Brazil,Tietê,La Plata,3.20,,-22.0347220000,-47.9916670000,P,,,,,22,,,,
Mar-15,498,São Geraldo,South America,Brazil,Pardo,La Plata,2.40,,-22.0341670000,-46.7437500000,P,,,,,22,,,,
Mar-15,499,Bolsa,South America,Brazil,Paraiba,Uruguay - Brazil[comma] South Atlantic Coast,4.00,,-22.0333330000,-43.7500000000,P,,,,,22,,,,
Mar-15,500,Bonança,South America,Brazil,Paraiba,Uruguay - Brazil[comma] South Atlantic Coast,5.50,,-22.0228000000,-42.1434000000,P,,,,,22,,,,
Mar-15,501,Aiuruoca,South America,Brazil,Grande,La Plata,16.00,,-22.0167000000,-44.6000000000,P,,,,,22,,,,
Mar-15,503,Cabuí,South America,Brazil,Paraiba,Uruguay - Brazil[comma] South Atlantic Coast,18.00,,-22.0000000000,-43.3333330000,P,,,,,22,,,,
Mar-15,504,Jambo,South America,Brazil,Paraiba,Uruguay - Brazil[comma] South Atlantic Coast,17.28,,-21.9842850000,-42.1142520000,P,,,,,22,,,,
Mar-15,505,Monte Verde,South America,Brazil,Paraiba,Uruguay - Brazil[comma] South Atlantic Coast,4.60,,-21.9520833330,-43.7437500000,P,,,,,22,,,,
Mar-15,506,Santa Inês,South America,Brazil,Pardo,La Plata,1.58,,-21.9539000000,-46.8069000000,P,,,,,22,,,,
Mar-15,508,Retirão,South America,Brazil,Pardo,La Plata,4.00,,-21.9169440000,-46.9263890000,P,,,,,22,,,,
Mar-15,509,Nossa Senhora Das Graças,South America,Brazil,Pardo,La Plata,2.85,,-21.9164950000,-46.9211180000,P,,,,,22,,,,
Mar-15,510,Monte Verde,South America,Brazil,Paraiba,Uruguay - Brazil[comma] South Atlantic Coast,3.80,,-21.9167070000,-43.5317250000,P,,,,,22,,,,
Mar-15,512,Clayton Ferreira (Ex-Rapadura),South America,Brazil,Pardo,La Plata,4.00,,-21.8917000000,-46.2500000000,P,,,,,22,,,,
Mar-15,513,Água Fria,South America,Brazil,Grande,Uruguay - Brazil[comma] South Atlantic Coast,3.00,,-21.9020833330,-43.9627780000,P,,,,,22,,,,
Mar-15,514,Vista Alegre,South America,Brazil,Grande,Uruguay - Brazil[comma] South Atlantic Coast,3.50,,-21.8854166670,-43.9104166670,P,,,,,22,,,,
Mar-15,515,Saudade,South America,Brazil,Paraiba,Uruguay - Brazil[comma] South Atlantic Coast,9.90,,-21.9000000000,-43.0740000000,P,,,,,22,,,,
Mar-15,517,Cotegipe,South America,Brazil,Paraiba,Uruguay - Brazil[comma] South Atlantic Coast,22.60,,-21.8769440000,-43.4169440000,P,,,,,22,,,,
Mar-15,518,Boa Vista,South America,Brazil,Paraiba,Uruguay - Brazil[comma] South Atlantic Coast,11.90,,-21.8669950000,-42.0215100000,P,,,,,22,,,,
Mar-15,519,Aventureiro,South America,Brazil,Paraiba,Uruguay - Brazil[comma] South Atlantic Coast,3.00,,-21.8679220000,-42.6526810000,P,,,,,22,,,,
Mar-15,521,Foz Do Angu,South America,Brazil,Paraiba,Uruguay - Brazil[comma] South Atlantic Coast,6.00,,-21.7952780000,-42.5022220000,P,,,,,22,,,,
Mar-15,522,Pimentel I,South America,Brazil,Paraiba,Uruguay - Brazil[comma] South Atlantic Coast,7.40,,-21.7919660000,-41.9590850000,P,,,,,22,,,,
Mar-15,523,Boa Vista,South America,Brazil,Paraiba,Uruguay - Brazil[comma] South Atlantic Coast,2.00,,-21.6667950000,-42.7328920000,P,,,,,22,,,,
Mar-15,524,Engº Barroso,South America,Brazil,Grande,La Plata,4.20,,-21.6490000000,-44.1440000000,P,,,,,22,,,,
Mar-15,525,Aperibé,South America,Brazil,Paraiba,Uruguay - Brazil[comma] South Atlantic Coast,7.20,,-21.6294440000,-42.0850000000,P,,,,,22,,,,
Mar-15,526,Engº Magela,South America,Brazil,Grande,La Plata,5.20,,-21.6208330000,-44.1619440000,P,,,,,22,,,,
Mar-15,527,Varginha Ii,South America,Brazil,Grande,La Plata,4.83,,-21.6175000000,-45.3925000000,P,,,,,22,,,,
Mar-15,529,Malta,South America,Brazil,Paraiba,Uruguay - Brazil[comma] South Atlantic Coast,26.40,,-21.5963890000,-41.7752780000,P,,,,,22,,,,
Mar-15,530,Alto Rio Grande (Ex-Capivari),South America,Brazil,Grande,La Plata,27.90,,-21.5938890000,-44.1505560000,P,,,,,22,,,,
Mar-15,531,Carrapatos,South America,Brazil,Pardo,La Plata,21.60,,-21.5666670000,-46.7000000000,P,,,,,22,,,,
Mar-15,532,Baltazar,South America,Brazil,Paraiba,Uruguay - Brazil[comma] South Atlantic Coast,17.60,,-21.5692350000,-42.1442480000,P,,,,,22,,,,
Mar-15,533,Boa Vista I,South America,Brazil,Grande,La Plata,9.00,,-21.5457090000,-45.5171050000,P,,,,,22,,,,
Mar-15,534,Mandembe,South America,Brazil,Grande,La Plata,2.10,,-21.5651700000,-44.8724200000,P,,,,,22,,,,
Mar-15,535,São José,South America,Brazil,Pardo,La Plata,19.00,,-21.5466780000,-46.8649340000,P,,,,,22,,,,
Mar-15,536,Cachoeira Alegre,South America,Brazil,Paraiba,Uruguay - Brazil[comma] South Atlantic Coast,11.60,,-21.5052460000,-42.2157160000,P,,,,,22,,,,
Mar-15,537,Luminárias (Ex-Cachoeira Da Fumaça),South America,Brazil,Grande,La Plata,3.20,,-21.4937500000,-44.9020833330,P,,,,,22,,,,
Mar-15,538,Paraoquena,South America,Brazil,Paraiba,Uruguay - Brazil[comma] South Atlantic Coast,13.70,,-21.4978980000,-42.2655710000,P,,,,,22,,,,
Mar-15,539,Estiva,South America,Brazil,Paraiba,Uruguay - Brazil[comma] South Atlantic Coast,8.00,,-21.4833330000,-42.2833330000,P,,,,,22,,,,
Mar-15,540,Laje,South America,Brazil,Paraiba,Uruguay - Brazil[comma] South Atlantic Coast,17.80,,-21.4733330000,-43.0583330000,P,,,,,22,,,,
Mar-15,541,Bela Vista,South America,Brazil,Paraiba,Uruguay - Brazil[comma] South Atlantic Coast,10.00,,-21.4666670000,-42.3333330000,P,,,,,22,,,,
Mar-15,542,Conceição Do Formoso,South America,Brazil,Doce,Uruguay - Brazil[comma] South Atlantic Coast,8.00,,-21.4116670000,-43.4008330000,P,,,,,22,,,,
Mar-15,543,Italva,South America,Brazil,Paraiba,Uruguay - Brazil[comma] South Atlantic Coast,8.80,,-21.3880560000,-41.6986110000,P,,,,,22,,,,
Mar-15,544,Couro Do Cervo,South America,Brazil,Grande,La Plata,2.00,,-21.3455560000,-45.1729166670,P,,,,,22,,,,
Mar-15,545,São Joaquim,South America,Brazil,Paraiba,Uruguay - Brazil[comma] South Atlantic Coast,11.00,,-21.3171870000,-41.7466800000,P,,,,,22,,,,
Mar-15,547,Paraíso,South America,Brazil,Paraiba,Uruguay - Brazil[comma] South Atlantic Coast,7.20,,-21.2983330000,-41.7572220000,P,,,,,22,,,,
Mar-15,548,Aré,South America,Brazil,Paraiba,Uruguay - Brazil[comma] South Atlantic Coast,13.00,,-21.2469440000,-41.7877780000,P,,,,,22,,,,
Mar-15,549,Itaperuna,South America,Brazil,Paraiba,Uruguay - Brazil[comma] South Atlantic Coast,8.40,,-21.2352100000,-41.8338050000,P,,,,,22,,,,
Mar-15,550,Bom Jesus,South America,Brazil,Paraiba,Uruguay - Brazil[comma] South Atlantic Coast,5.00,,-21.1213890000,-41.7061110000,P,,,,,22,,,,
Mar-15,551,Ibituruna,South America,Brazil,Grande,La Plata,30.00,,-21.1144000000,-44.7667000000,P,,,,,22,,,,
Mar-15,552,Pirapetinga,South America,Brazil,Grande,La Plata,30.00,,-21.1122000000,-44.7833000000,P,,,,,22,,,,
Mar-15,555,Nova Franca Amaral,South America,Brazil,Paraiba,Uruguay - Brazil[comma] South Atlantic Coast,30.00,,-21.0682460000,-41.7218210000,P,,,,,22,,,,
Mar-15,556,Preto 1,South America,Brazil,Doce,Uruguay - Brazil[comma] South Atlantic Coast,9.00,,-21.0527780000,-42.4897220000,P,,,,,22,,,,
Mar-15,557,Saltinho Do Itabapoana,South America,Brazil,Paraiba,Uruguay - Brazil[comma] South Atlantic Coast,5.00,,-21.0233120000,-41.7186000000,P,,,,,22,,,,
Mar-15,558,Eixo B1 A,South America,Brazil,Grande,La Plata,7.50,,-20.9291670000,-46.6502780000,P,,,,,22,,,,
Mar-15,560,Brás Pires,South America,Brazil,Doce,Uruguay - Brazil[comma] South Atlantic Coast,5.00,,-20.8638890000,-43.2702780000,P,,,,,22,,,,
Mar-15,561,São Lourenço,South America,Brazil,Paraiba,Uruguay - Brazil[comma] South Atlantic Coast,5.90,,-20.8583330000,-41.9944440000,P,,,,,22,,,,
Mar-15,562,Tuneco Alta,South America,Brazil,Grande,La Plata,9.00,,-20.8494440000,-45.0769440000,P,,,,,22,,,,
Mar-15,563,Ilha Da Luz,South America,Brazil,Paraiba,Uruguay - Brazil[comma] South Atlantic Coast,3.00,,-20.8341670000,-41.1225000000,U,,,,,22,,,,
Mar-15,564,Santa Cruz,South America,Brazil,Doce,Uruguay - Brazil[comma] South Atlantic Coast,15.00,,-20.8187460000,-42.3203550000,P,,,,,22,,,,
Mar-15,565,Nova São João,South America,Brazil,Grande,La Plata,10.00,,-20.8030560000,-46.7038890000,P,,,,,22,,,,
Mar-15,566,Mariano,South America,Brazil,Doce,Uruguay - Brazil[comma] South Atlantic Coast,4.20,,-20.7972220000,-42.3227780000,P,,,,,22,,,,
Mar-15,567,São Francisco Do Glória,South America,Brazil,Doce,Uruguay - Brazil[comma] South Atlantic Coast,9.50,,-20.7933330000,-42.3166670000,P,,,,,22,,,,
Mar-15,568,São Pedro,South America,Brazil,Doce,Uruguay - Brazil[comma] South Atlantic Coast,6.60,,-20.7530560000,-42.3444440000,P,,,,,22,,,,
Mar-15,569,Sapucaí,South America,Brazil,Grande,La Plata,12.40,,-21.5465690000,-45.6921210000,P,,,,,22,,,,
Mar-15,570,Porto Firme,South America,Brazil,Doce,Uruguay - Brazil[comma] South Atlantic Coast,16.50,,-20.6858330000,-43.0836110000,P,,,,,22,,,,
Mar-15,571,Fortaleza,South America,Brazil,Paraiba,Uruguay - Brazil[comma] South Atlantic Coast,11.00,,-20.6544000000,-41.5433000000,P,,,,,22,,,,
Mar-15,572,Santa Fé,South America,Brazil,Para,Sao Francisco,1.40,,-20.6422200000,-44.4222000000,P,,,,,22,,,,
Mar-15,573,Fábio Botelho Notini,South America,Brazil,Paraiba,Sao Francisco,9.20,,-20.6122220000,-44.4716670000,P,,,,,22,,,,
Mar-15,574,Cachoeira Grande,South America,Brazil,Doce,Uruguay - Brazil[comma] South Atlantic Coast,3.20,,-20.6057660000,-42.6062000000,P,,,,,22,,,,
Mar-15,575,Santa Rita,South America,Brazil,Pardo,La Plata,13.60,,-20.5945770000,-47.7495430000,P,,,,,22,,,,
Mar-15,576,Guaraciaba,South America,Brazil,Doce,Uruguay - Brazil[comma] South Atlantic Coast,19.50,,-20.5766670000,-43.0208330000,P,,,,,22,,,,
Mar-15,577,Matilde,South America,Brazil,Doce,Uruguay - Brazil[comma] South Atlantic Coast,8.00,,-20.5491320000,-40.8221510000,P,,,,,22,,,,
Mar-15,579,Cachoeira Escura,South America,Brazil,Doce,Uruguay - Brazil[comma] South Atlantic Coast,20.70,,-20.5166670000,-42.6708330000,P,,,,,22,,,,
Mar-15,580,Mainart,South America,Brazil,Doce,Uruguay - Brazil[comma] South Atlantic Coast,8.00,,-20.4744440000,-43.3455560000,P,,,,,22,,,,
Mar-15,581,Cantagalo,South America,Brazil,Doce,Uruguay - Brazil[comma] South Atlantic Coast,30.00,,-20.4687670000,-43.0003830000,P,,,,,22,,,,
Mar-15,583,Caldeirões,South America,Brazil,Doce,Uruguay - Brazil[comma] South Atlantic Coast,15.00,,-20.4311100000,-43.1981160000,P,,,,,22,,,,
Mar-15,584,Marechal Floriano,South America,Brazil,Doce,Uruguay - Brazil[comma] South Atlantic Coast,26.10,,-20.4046630000,-40.6498510000,P,,,,,22,,,,
Mar-15,585,Paraíso,South America,Brazil,Doce,Uruguay - Brazil[comma] South Atlantic Coast,10.00,,-20.3919440000,-43.1894440000,P,,,,,22,,,,
Mar-15,586,Rc1,South America,Brazil,Doce,Uruguay - Brazil[comma] South Atlantic Coast,2.20,,-20.3904180000,-43.4799540000,P,,,,,22,,,,
Mar-15,589,Monjolinho,South America,Brazil,Grande,La Plata,16.80,,-20.3769980000,-47.9735770000,P,,,,,22,,,,
Mar-15,590,Pontal,South America,Brazil,Doce,Uruguay - Brazil[comma] South Atlantic Coast,29.00,,-20.3531000000,-42.9206000000,P,,,,,22,,,,
Mar-15,591,Covanca,South America,Brazil,Doce,Uruguay - Brazil[comma] South Atlantic Coast,11.50,,-20.3530560000,-43.1666670000,P,,,,,22,,,,
Mar-15,592,Rc2,South America,Brazil,Doce,Uruguay - Brazil[comma] South Atlantic Coast,5.80,,-20.3519440000,-43.2563890000,P,,,,,22,,,,
Mar-15,593,São Bento,South America,Brazil,Doce,Uruguay - Brazil[comma] South Atlantic Coast,16.00,,-20.3157900000,-40.6579720000,P,,,,,22,,,,
Mar-15,594,Rosário,South America,Brazil,Doce,Uruguay - Brazil[comma] South Atlantic Coast,11.00,,-20.3011110000,-43.0725000000,P,,,,,22,,,,
Mar-15,595,Pedreira,South America,Brazil,Doce,Uruguay - Brazil[comma] South Atlantic Coast,11.00,,-20.2957751521,-40.6979166670,P,,,,,22,,,,
Mar-15,596,Bração,South America,Brazil,Velhas,Sao Francisco,1.22,,-20.2748140000,-43.8068410000,P,,,,,22,,,,
Mar-15,597,São Tiago,South America,Brazil,Indaiá,Sao Francisco,9.00,,-20.2462360000,-46.2056920000,P,,,,,22,,,,
Mar-15,598,Talhado,South America,Brazil,Grande,La Plata,12.00,,-20.2191000000,-49.5404590000,P,,,,,22,,,,
Mar-15,599,Bonfim De Baixo,South America,Brazil,Doce,Uruguay - Brazil[comma] South Atlantic Coast,8.30,,-20.1933310000,-42.3477750000,P,,,,,22,,,,
Mar-15,600,Melo Viana,South America,Brazil,Doce,Uruguay - Brazil[comma] South Atlantic Coast,9.66,,-20.1250000000,-42.4027780000,P,,,,,22,,,,
Mar-15,602,Foz Do Preto,South America,Brazil,Grande,La Plata,16.00,,-20.1652690000,-49.6540390000,P,,,,,22,,,,
Mar-15,603,São Domingos,South America,Brazil,Grande,La Plata,11.80,,-20.1661260000,-48.3253730000,P,,,,,22,,,,
Mar-15,605,Jurumirim,South America,Brazil,Doce,Uruguay - Brazil[comma] South Atlantic Coast,18.00,,-20.1438890000,-42.6422220000,P,,,,,22,,,,
Mar-15,606,Santa Leopoldina,South America,Brazil,Doce,Uruguay - Brazil[comma] South Atlantic Coast,10.00,,-20.0900000000,-40.5452780000,P,,,,,22,,,,
Mar-15,607,Engenho De Cima,South America,Brazil,Indaiá,Sao Francisco,13.30,,-20.0826890000,-46.3454610000,P,,,,,22,,,,
Mar-15,608,Timbuí Seco,South America,Brazil,Doce,Uruguay - Brazil[comma] South Atlantic Coast,16.80,,-20.0836530000,-40.5954050000,P,,,,,22,,,,
Mar-15,609,Sertãozinho,South America,Brazil,Indaiá,Sao Francisco,6.30,,-20.0533330000,-46.3655560000,P,,,,,22,,,,
Mar-15,610,Verde 4,South America,Brazil,Verde,La Plata,19.00,,-19.9781360000,-53.2721700000,P,,,,,22,,,,
Mar-15,611,São Luiz,South America,Brazil,Doce,Uruguay - Brazil[comma] South Atlantic Coast,17.50,,-19.9627780000,-41.0800000000,P,,,,,22,,,,
Mar-15,612,Pasto De Grama,South America,Brazil,Doce,Uruguay - Brazil[comma] South Atlantic Coast,5.10,,-19.9552780000,-41.4275000000,P,,,,,22,,,,
Mar-15,613,Santa Teresa,South America,Brazil,Doce,Uruguay - Brazil[comma] South Atlantic Coast,11.70,,-19.5130790000,-40.5303370000,P,,,,,22,,,,
Mar-15,614,Perdigão,South America,Brazil,Indaiá,Sao Francisco,13.00,,-19.9061110000,-45.1027780000,P,,,,,22,,,,
Mar-15,615,Verde 4A,South America,Brazil,Verde,La Plata,28.00,,-19.8744000000,-53.3686000000,P,,,,,22,,,,
Mar-15,616,Sumidouro,South America,Brazil,Velhas,Uruguay - Brazil[comma] South Atlantic Coast,13.00,,-19.1145833330,-43.2333000000,P,,,,,22,,,,
Mar-15,617,Taquari,South America,Brazil,Doce,Uruguay - Brazil[comma] South Atlantic Coast,24.00,,-19.7811110000,-43.1036110000,P,,,,,22,,,,
Mar-15,618,Chica Valadares,South America,Brazil,Doce,Uruguay - Brazil[comma] South Atlantic Coast,3.54,,-19.6713890000,-41.9800000000,P,,,,,22,,,,
Mar-15,619,Imbé I,South America,Brazil,Doce,Uruguay - Brazil[comma] South Atlantic Coast,2.33,,-19.6094000000,-41.9172000000,P,,,,,22,,,,
Mar-15,620,Água Limpa,South America,Brazil,Doce,Uruguay - Brazil[comma] South Atlantic Coast,16.50,,-19.5980560000,-42.7483330000,P,,,,,22,,,,
Mar-15,621,Serra Do Azeite,South America,Brazil,Doce,Uruguay - Brazil[comma] South Atlantic Coast,13.50,,-19.5048050000,-41.6547690000,P,,,,,22,,,,
Mar-15,622,Tabaúna,South America,Brazil,Doce,Uruguay - Brazil[comma] South Atlantic Coast,27.00,,-19.4975000000,-41.3247220000,P,,,,,22,,,,
Mar-15,623,Cachoeira Grande,South America,Brazil,Doce,Uruguay - Brazil[comma] South Atlantic Coast,10.00,,-19.4836780000,-42.6980130000,P,,,,,22,,,,
Mar-15,624,Calcutá,South America,Brazil,Verde,La Plata,3.50,,-19.4211110000,-54.4372220000,P,,,,,22,,,,
Mar-15,625,Maringá,South America,Brazil,Verde,La Plata,4.00,,-19.4202780000,-54.3975000000,P,,,,,22,,,,
Mar-15,626,Ponte Vermelha,South America,Brazil,Verde,La Plata,5.00,,-19.4144440000,-54.3533330000,P,,,,,22,,,,
Mar-15,627,Lagoa Alta,South America,Brazil,Verde,La Plata,6.00,,-19.4041670000,-54.3019440000,P,,,,,22,,,,
Mar-15,629,São João,South America,Brazil,Paranaíba,La Plata,5.60,,-19.3035960000,-46.4835680000,P,,,,,22,,,,
Mar-15,630,Indaiá Grande,South America,Brazil,Verde,La Plata,18.31,,-19.2830000000,-52.3970000000,U,,,,,22,,,,
Mar-15,631,Sapé,South America,Brazil,Doce,Uruguay - Brazil[comma] South Atlantic Coast,19.50,,-19.2788890000,-42.9783330000,P,,,,,22,,,,
Mar-15,632,Sete Cachoeiras,South America,Brazil,Doce,Uruguay - Brazil[comma] South Atlantic Coast,17.60,,-19.2514690000,-42.9434890000,P,,,,,22,,,,
Mar-15,633,Pedra Branca,South America,Brazil,Verde,La Plata,14.00,,-19.2568210000,-52.8014970000,P,,,,,22,,,,
Mar-15,634,Quinquim,South America,Brazil,Velhas,Uruguay - Brazil[comma] South Atlantic Coast,14.00,,-19.2284620000,-43.2501840000,P,,,,,22,,,,
Mar-15,635,Ferros,South America,Brazil,Doce,Uruguay - Brazil[comma] South Atlantic Coast,16.60,,-19.2332350000,-43.0733680000,P,,,,,22,,,,
Mar-15,636,Ferradura,South America,Brazil,Doce,Uruguay - Brazil[comma] South Atlantic Coast,23.00,,-19.2704620000,-42.9754950000,P,,,,,22,,,,
Mar-15,637,Santo Antônio,South America,Brazil,Velhas,Uruguay - Brazil[comma] South Atlantic Coast,7.00,,-19.2190000000,-43.2580000000,P,,,,,22,,,,
Mar-15,638,Indaiázinho (Ex. Indaiázinho Grande),South America,Brazil,Verde,La Plata,11.86,,-19.2004040000,-52.3549650000,U,,,,,22,,,,
Mar-15,639,Brejaúba,South America,Brazil,Doce,Uruguay - Brazil[comma] South Atlantic Coast,11.00,,-19.1991780000,-43.1178640000,P,,,,,22,,,,
Mar-15,640,Ouro Fino,South America,Brazil,Doce,Uruguay - Brazil[comma] South Atlantic Coast,28.40,,-19.2115920000,-42.8991920000,P,,,,,22,,,,
Mar-15,641,Varginha,South America,Brazil,Paranaíba,La Plata,8.00,,-19.1820000000,-47.8070000000,P,,,,,22,,,,
Mar-15,642,Monjolo,South America,Brazil,Doce,Uruguay - Brazil[comma] South Atlantic Coast,15.00,,-19.1673510000,-43.1389060000,P,,,,,22,,,,
Mar-15,643,Porcos (Km 50[comma]9),South America,Brazil,Velhas,Uruguay - Brazil[comma] South Atlantic Coast,5.50,,-19.1467670000,-43.3423170000,P,,,,,22,,,,
Mar-15,644,Peralta,South America,Brazil,Verde,La Plata,14.50,,-19.1340390000,-54.2156810000,P,,,,,22,,,,
Mar-15,645,Santa Rita (Km 14[comma]8),South America,Brazil,Doce,Uruguay - Brazil[comma] South Atlantic Coast,5.00,,-19.1316670000,-43.1533850000,P,,,,,22,,,,
Mar-15,646,Axupé (Km 26[comma]2),South America,Brazil,Doce,Uruguay - Brazil[comma] South Atlantic Coast,5.00,,-19.0966790000,-43.1716030000,P,,,,,22,,,,
Mar-15,647,Dores De Guanhães,South America,Brazil,Doce,Uruguay - Brazil[comma] South Atlantic Coast,14.00,,-19.0642540000,-42.8848700000,P,,,,,22,,,,
Mar-15,648,São João (Km 35[comma]6),South America,Brazil,Jequitinhonha,Uruguay - Brazil[comma] South Atlantic Coast,10.00,,-19.0606080000,-43.1956300000,P,,,,,22,,,,
Mar-15,649,Lajeado,South America,Brazil,Verde,La Plata,11.10,,-19.0584150000,-52.5316790000,P,,,,,22,,,,
Mar-15,650,Jacu,South America,Brazil,Paranaíba,La Plata,10.20,,-19.0510000000,-48.9950000000,P,,,,,22,,,,
Mar-15,652,Água Vermelha,South America,Brazil,Taquari,La Plata,23.70,,-19.0166670000,-54.3333330000,P,,,,,22,,,,
Mar-15,653,Jacaré,South America,Brazil,Doce,Uruguay - Brazil[comma] South Atlantic Coast,9.00,,-18.9994090000,-42.9486190000,P,,,,,22,,,,
Mar-15,654,Bom Jardim,South America,Brazil,Paranaíba,La Plata,3.10,,-18.9830450000,-53.1643890000,P,,,,,22,,,,
Mar-15,655,Fundãozinho,South America,Brazil,Verde,La Plata,29.60,,-18.9963650000,-48.2690320000,P,,,,,22,,,,
Mar-15,656,Beija Flor Ii,South America,Brazil,Doce,Uruguay - Brazil[comma] South Atlantic Coast,20.00,,-18.9333330000,-42.3666670000,P,,,,,22,,,,
Mar-15,657,Figueirinha I,South America,Brazil,Doce,Uruguay - Brazil[comma] South Atlantic Coast,13.50,,-18.9483330000,-42.5694440000,P,,,,,22,,,,
Mar-15,658,Cutia Alto,South America,Brazil,Paranaíba,La Plata,30.00,,-18.9480000000,-49.3260000000,P,,,,,22,,,,
Mar-15,659,Cruz Velha,South America,Brazil,Paranaíba,La Plata,22.80,,-18.9438400000,-49.1569380000,P,,,,,22,,,,
Mar-15,660,Vila Verde,South America,Brazil,Doce,Uruguay - Brazil[comma] South Atlantic Coast,3.60,,-18.9413050000,-40.9215510000,P,,,,,22,,,,
Mar-15,661,Pirapitanga Baixo,South America,Brazil,Paranaíba,La Plata,11.20,,-18.9360000000,-49.4810000000,P,,,,,22,,,,
Mar-15,662,Bugres,South America,Brazil,Paranaíba,La Plata,18.60,,-18.9149360000,-49.5864720000,P,,,,,22,,,,
Mar-15,663,Figueirinha Ii,South America,Brazil,Doce,Uruguay - Brazil[comma] South Atlantic Coast,8.00,,-18.9045670000,-42.6489820000,P,,,,,22,,,,
Mar-15,664,Salto Do Baú,South America,Brazil,Paranaíba,La Plata,19.80,,-18.9020000000,-49.6600000000,P,,,,,22,,,,
Mar-15,665,Dias,South America,Brazil,Paranaíba,La Plata,7.40,,-18.8879910000,-48.3215250000,P,,,,,22,,,,
Mar-15,666,Fortuna Ii,South America,Brazil,Doce,Uruguay - Brazil[comma] South Atlantic Coast,9.00,,-18.8975810000,-42.6833930000,P,,,,,22,,,,
Mar-15,667,Andorinha,South America,Brazil,Paraopeba,Sao Francisco,10.10,,-18.8638890000,-44.8083330000,P,,,,,22,,,,
Mar-15,668,Cachoeira Do Gambá,South America,Brazil,Paranaíba,La Plata,15.90,,-18.8611880000,-49.7355260000,P,,,,,22,,,,
Mar-15,669,São Domingos,South America,Brazil,Taquari,La Plata,22.00,,-18.8500000000,-54.5166670000,P,,,,,22,,,,
Mar-15,670,Mosquito,South America,Brazil,Paranaíba,La Plata,12.30,,-18.8150000000,-49.8140000000,P,,,,,22,,,,
Mar-15,671,Santo Antônio Do Porto,South America,Brazil,Doce,Uruguay - Brazil[comma] South Atlantic Coast,12.50,,-18.7547920000,-42.1664640000,P,,,,,22,,,,
Mar-15,672,Lajeadinho,South America,Brazil,Verde,La Plata,4.90,,-18.7480000000,-52.2490000000,P,,,,,22,,,,
Mar-15,673,Cachoeira Da Fumaça,South America,Brazil,Doce,Uruguay - Brazil[comma] South Atlantic Coast,9.00,,-18.7377780000,-42.3027780000,P,,,,,22,,,,
Mar-15,674,Pontal Do Prata,South America,Brazil,Verde,La Plata,12.00,,-18.7381000000,-52.2978000000,U,,,,,22,,,,
Mar-15,675,Cachoeira Do Miné,South America,Brazil,Paranaíba,La Plata,16.02,,-18.7380000000,-48.4710000000,P,,,,,22,,,,
Mar-15,676,Queixada,South America,Brazil,Verde,La Plata,30.00,,-18.7310000000,-51.7980000000,U,,,,,22,,,,
Mar-15,677,Mundo Novo,South America,Brazil,Taquari,La Plata,21.50,,-18.8560000000,-54.5010000000,P,,,,,22,,,,
Mar-15,678,Luzilândia,South America,Brazil,Doce,Uruguay - Brazil[comma] South Atlantic Coast,1.60,,-18.7252710000,-40.6295150000,P,,,,,22,,,,
Mar-15,679,Engano,South America,Brazil,Verde,La Plata,8.00,,-18.7140000000,-52.3420000000,P,,,,,22,,,,
Mar-15,680,Itaperuna,South America,Brazil,Doce,Uruguay - Brazil[comma] South Atlantic Coast,1.50,,-18.7118340000,-40.7681800000,P,,,,,22,,,,
Mar-15,681,Piau,South America,Brazil,Doce,Uruguay - Brazil[comma] South Atlantic Coast,17.00,,-18.7036110000,-41.7991670000,P,,,,,22,,,,
Mar-15,682,Pirapitinga,South America,Brazil,Doce,Uruguay - Brazil[comma] South Atlantic Coast,11.00,,-18.6923960000,-42.2106130000,P,,,,,22,,,,
Mar-15,683,Vista Bela,South America,Brazil,Doce,Uruguay - Brazil[comma] South Atlantic Coast,1.40,,-18.6780560000,-40.9880560000,P,,,,,22,,,,
Mar-15,684,Quartel 1,South America,Brazil,Velhas,Sao Francisco,30.00,,-18.6708330000,-43.8800000000,P,,,,,22,,,,
Mar-15,685,Ponte Indaiá  Jusante,South America,Brazil,São Francisco,Sao Francisco,5.82,,-18.6613830000,-45.5475000000,P,,,,,22,,,,
Mar-15,686,Boa Vista,South America,Brazil,Doce,Uruguay - Brazil[comma] South Atlantic Coast,9.00,,-18.6603050000,-42.2458050000,P,,,,,22,,,,
Mar-15,687,Pirapetinga,South America,Brazil,Paranaíba,La Plata,2.00,,-18.6554940000,-47.5069590000,P,,,,,22,,,,
Mar-15,688,Dos Tocos,South America,Brazil,Paranaíba,La Plata,1.20,,-18.6465900000,-47.5075860000,P,,,,,22,,,,
Mar-15,689,Areado,South America,Brazil,São Francisco,Sao Francisco,10.90,,-18.6436110000,-45.8766670000,P,,,,,22,,,,
Mar-15,690,Retiro 1,South America,Brazil,Doce,Uruguay - Brazil[comma] South Atlantic Coast,19.00,,-18.6443980000,-42.3201740000,P,,,,,22,,,,
Mar-15,691,Quartel 2,South America,Brazil,Velhas,Sao Francisco,30.00,,-18.6377780000,-43.9147220000,P,,,,,22,,,,
Mar-15,692,Quartel 3,South America,Brazil,Velhas,Sao Francisco,30.00,,-18.6308330000,-43.9361110000,P,,,,,22,,,,
Mar-15,693,Lajinha,South America,Brazil,Paranaíba,La Plata,1.60,,-18.6352520000,-47.5225120000,P,,,,,22,,,,
Mar-15,694,Limeira,South America,Brazil,Doce,Uruguay - Brazil[comma] South Atlantic Coast,14.00,,-18.5741670000,-41.9469440000,P,,,,,22,,,,
Mar-15,695,Bombas,South America,Brazil,São Francisco,Sao Francisco,14.50,,-18.5208330000,-45.8027780000,P,,,,,22,,,,
Mar-15,696,Santa Maria,South America,Brazil,Doce,Uruguay - Brazil[comma] South Atlantic Coast,2.90,,-18.5901630000,-40.1979570000,P,,,,,22,,,,
Mar-15,697,Quebra Dedo,South America,Brazil,Doce,Uruguay - Brazil[comma] South Atlantic Coast,16.00,,-18.4438890000,-42.0333330000,P,,,,,22,,,,
Mar-15,698,Cachoeira Grande,South America,Brazil,Doce,Uruguay - Brazil[comma] South Atlantic Coast,20.00,,-18.4011000000,-42.1533000000,P,,,,,22,,,,
Mar-15,699,Cocal,South America,Brazil,Velhas,Sao Francisco,4.40,,-18.3767910000,-43.9317030000,P,,,,,22,,,,
Mar-15,700,Mareta,South America,Brazil,Jequitinhonha,Uruguay - Brazil[comma] South Atlantic Coast,7.00,,-18.3674300000,-42.6695580000,P,,,,,22,,,,
Mar-15,701,Matão,South America,Brazil,Doce,Uruguay - Brazil[comma] South Atlantic Coast,9.00,,-18.3727780000,-42.3830550000,P,,,,,22,,,,
Mar-15,702,Palmeira,South America,Brazil,São Francisco,Sao Francisco,21.60,,-18.3688890000,-45.7225000000,P,,,,,22,,,,
Mar-15,703,Santa Cruz,South America,Brazil,Doce,Uruguay - Brazil[comma] South Atlantic Coast,14.00,,-18.3775360000,-42.2972790000,P,,,,,22,,,,
Mar-15,704,Serra Das Agulhas,South America,Brazil,Velhas,Sao Francisco,24.00,,-18.3619440000,-43.9586110000,P,,,,,22,,,,
Mar-15,705,Coqueiro,South America,Brazil,Jequitinhonha,Uruguay - Brazil[comma] South Atlantic Coast,6.00,,-18.3500000000,-42.6166670000,P,,,,,22,,,,
Mar-15,706,Fumaça,South America,Brazil,Doce,Uruguay - Brazil[comma] South Atlantic Coast,8.00,,-18.3840920000,-42.1168340000,P,,,,,22,,,,
Mar-15,707,Canastra,South America,Brazil,Jequitinhonha,Uruguay - Brazil[comma] South Atlantic Coast,6.00,,-18.3416670000,-42.7722220000,P,,,,,22,,,,
Mar-15,708,Palmeira,South America,Brazil,Doce,Uruguay - Brazil[comma] South Atlantic Coast,2.30,,-18.3113280000,-40.6412820000,P,,,,,22,,,,
Mar-15,709,Barra Da Conceição,South America,Brazil,Doce,Uruguay - Brazil[comma] South Atlantic Coast,1.10,,-18.2895833330,-41.4187500000,P,,,,,22,,,,
Mar-15,710,Itapeba,South America,Brazil,Doce,Uruguay - Brazil[comma] South Atlantic Coast,2.00,,-18.2435110000,-40.6577590000,P,,,,,22,,,,
Mar-15,711,Dourado,South America,Brazil,Doce,Uruguay - Brazil[comma] South Atlantic Coast,1.30,,-18.2290560000,-41.2007430000,P,,,,,22,,,,
Mar-15,712,Cibrão,South America,Brazil,Doce,Uruguay - Brazil[comma] South Atlantic Coast,1.20,,-18.2261600000,-41.2194930000,P,,,,,22,,,,
Mar-15,713,São José,South America,Brazil,Doce,Uruguay - Brazil[comma] South Atlantic Coast,1.40,,-18.2070520000,-41.1328060000,P,,,,,22,,,,
Mar-15,714,Cotaxé,South America,Brazil,Doce,Uruguay - Brazil[comma] South Atlantic Coast,2.40,,-18.1954470000,-40.6978020000,P,,,,,22,,,,
Mar-15,715,São Gonçalo,South America,Brazil,São Francisco,Sao Francisco,19.00,,-18.1987820000,-45.6371430000,P,,,,,22,,,,
Mar-15,716,Alemães Baixo,South America,Brazil,São Francisco,Sao Francisco,21.00,,-18.1719440000,-45.5927780000,P,,,,,22,,,,
Mar-15,717,Barra Do Prata,South America,Brazil,Doce,Uruguay - Brazil[comma] South Atlantic Coast,1.90,,-18.1665660000,-41.0563900000,P,,,,,22,,,,
Mar-15,718,Pedro Gomes,South America,Brazil,Taquari,La Plata,19.50,,-18.1500000000,-54.4500000000,P,,,,,22,,,,
Mar-15,719,Canoas,South America,Brazil,São Francisco,Sao Francisco,19.30,,-18.1259620000,-45.4734990000,P,,,,,22,,,,
Mar-15,720,Cachoeira Comprida,South America,Brazil,São Francisco,Sao Francisco,20.80,,-18.0864230000,-45.3956970000,P,,,,,22,,,,
Mar-15,721,Mateus José,South America,Brazil,São Francisco,Sao Francisco,11.00,,-18.0855460000,-45.3291210000,P,,,,,22,,,,
Mar-15,722,Taquarizinho,South America,Brazil,Taquari,La Plata,11.00,,-18.0214470000,-53.5174040000,P,,,,,22,,,,
Mar-15,723,Mutum,South America,Brazil,Taquari,La Plata,8.50,,-17.9843410000,-53.4029280000,P,,,,,22,,,,
Mar-15,724,Barra Do Ariranha,South America,Brazil,Taquari,La Plata,13.00,,-17.9779980000,-53.7988230000,P,,,,,22,,,,
Mar-15,725,Fazenda Velha,South America,Brazil,Verde,La Plata,12.60,,-17.9690000000,-51.7620000000,P,,,,,22,,,,
Mar-15,726,Serra Vermelha,South America,Brazil,Taquari,La Plata,2.50,,-17.9503950000,-53.3985360000,P,,,,,22,,,,
Mar-15,727,Lajari (Geração),South America,Brazil,Taquari,La Plata,19.30,,-17.9270833330,-53.4020833330,P,,,,,22,,,,
Mar-15,728,Sertãozinho,South America,Brazil,Verde,La Plata,14.00,,-17.9120000000,-51.7530000000,P,,,,,22,,,,
Mar-15,729,São Thomaz 1,South America,Brazil,Bois,La Plata,2.30,,-17.9050000000,-50.7772220000,P,,,,,22,,,,
Mar-15,730,São Thomaz 3,South America,Brazil,Bois,La Plata,4.40,,-17.8733330000,-50.6991670000,P,,,,,22,,,,
Mar-15,732,São Thomaz 4,South America,Brazil,Bois,La Plata,7.40,,-17.8572050000,-50.6219170000,P,,,,,22,,,,
Mar-15,733,São Domingos,South America,Brazil,São Francisco,Sao Francisco,10.00,,-17.7619440000,-45.7130560000,P,,,,,22,,,,
Mar-15,734,Buriti Fundo,South America,Brazil,Velhas,Sao Francisco,1.60,,-17.7527780000,-44.4505560000,P,,,,,22,,,,
Mar-15,735,Ipê (Ex-Verde 09),South America,Brazil,Bois,La Plata,29.30,,-17.7270000000,-50.4490000000,P,,,,,22,,,,
Mar-15,736,Verde 08,South America,Brazil,Bois,La Plata,29.40,,-17.6510000000,-50.4960000000,P,,,,,22,,,,
Mar-15,737,Santa Rita,South America,Brazil,São Francisco,Sao Francisco,5.50,,-17.6225000000,-45.6550000000,P,,,,,22,,,,
Mar-15,738,Santa Paula,South America,Brazil,Taquari,La Plata,5.20,,-17.6017200000,-54.3810920000,P,,,,,22,,,,
Mar-15,739,Morrinhos,South America,Brazil,São Francisco,Sao Francisco,8.50,,-17.5852690000,-45.7613880000,P,,,,,22,,,,
Mar-15,741,Limeira - (Km 30[comma]5),South America,Brazil,São Francisco,Sao Francisco,4.10,,-17.5497220000,-45.0866670000,P,,,,,22,,,,
Mar-15,742,Caraípe,South America,Brazil,Jequitinhonha,Uruguay - Brazil[comma] South Atlantic Coast,2.53,,-17.5145510000,-39.7168670000,P,,,,,22,,,,
Mar-15,743,Morro Vermelho - (Km 23),South America,Brazil,São Francisco,Sao Francisco,8.40,,-17.5147220000,-45.0791670000,P,,,,,22,,,,
Mar-15,744,Paulo Geraldo - (Km 17[comma]2),South America,Brazil,São Francisco,Sao Francisco,7.20,,-17.4701830000,-45.0532060000,P,,,,,22,,,,
Mar-15,745,Verdinho 01 Alto,South America,Brazil,Bois,La Plata,17.70,,-17.4530000000,-50.7570000000,P,,,,,22,,,,
Mar-15,746,Juracitaba,South America,Brazil,Jequitinhonha,Uruguay - Brazil[comma] South Atlantic Coast,1.68,,-17.4301600000,-40.1031160000,P,,,,,22,,,,
Mar-15,747,Graças,South America,Brazil,São Francisco,Sao Francisco,8.00,,-17.4160440000,-45.5741380000,P,,,,,22,,,,
Mar-15,748,Cachoeira Das Almas,South America,Brazil,São Francisco,Sao Francisco,28.00,,-17.3516670000,-45.5308330000,P,,,,,22,,,,
Mar-15,749,Monte Alegre 02,South America,Brazil,Bois,La Plata,19.20,,-17.3510430000,-50.7673830000,P,,,,,22,,,,
Mar-15,750,Almas,South America,Brazil,São Francisco,Sao Francisco,8.00,,-17.3457340000,-45.5182430000,P,,,,,22,,,,
Mar-15,751,Verde 04 Baixo,South America,Brazil,Bois,La Plata,10.50,,-17.3250000000,-50.6820000000,P,,,,,22,,,,
Mar-15,752,Jequitaí I,South America,Brazil,Velhas,Sao Francisco,8.25,,-17.2675000000,-44.3808330000,P,,,,,22,,,,
Mar-15,753,Verde 02 Baixo,South America,Brazil,Bois,La Plata,19.30,,-17.2644570000,-50.8464920000,P,,,,,22,,,,
Mar-15,754,Verde 03,South America,Brazil,Bois,La Plata,24.00,,-17.2600000000,-50.8150000000,P,,,,,22,,,,
Mar-15,755,Jequitaí Ii,South America,Brazil,Velhas,Sao Francisco,12.40,,-17.2463890000,-44.4152780000,P,,,,,22,,,,
Mar-15,756,Gaitas,South America,Brazil,São Francisco,Sao Francisco,3.76,,-17.2446550000,-45.4372600000,P,,,,,22,,,,
Mar-15,757,Ponte De Pedra 02,South America,Brazil,Bois,La Plata,17.30,,-17.2320000000,-50.7440000000,P,,,,,22,,,,
Mar-15,758,Santa Clara Montante,South America,Brazil,Jequitinhonha,Uruguay - Brazil[comma] South Atlantic Coast,5.00,,-17.2108930000,-39.9212020000,P,,,,,22,,,,
Mar-15,759,Ponte De Pedra 01,South America,Brazil,Bois,La Plata,23.40,,-17.1730000000,-50.8460000000,P,,,,,22,,,,
Mar-15,760,Água Branca,South America,Brazil,São Francisco,Sao Francisco,4.00,,-17.1325990000,-45.4470300000,P,,,,,22,,,,
Mar-15,761,Paredão De Minas,South America,Brazil,São Francisco,Sao Francisco,17.00,,-17.1233330000,-45.4402780000,P,,,,,22,,,,
Mar-15,762,Cachoeira Da Lixa 2,South America,Brazil,Jequitinhonha,Uruguay - Brazil[comma] South Atlantic Coast,2.93,,-17.0472220000,-40.0758330000,P,,,,,22,,,,
Mar-15,763,Caiapó 1,South America,Brazil,Verde,Tocantins,4.00,,-17.0143620000,-51.2020770000,P,,,,,22,,,,
Mar-15,764,Caiapó 2,South America,Brazil,Verde,Tocantins,4.00,,-16.9458330000,-51.1955560000,P,,,,,22,,,,
Mar-15,765,Caiapó 3,South America,Brazil,Verde,Tocantins,3.40,,-16.7725000000,-51.2250000000,P,,,,,22,,,,
Mar-15,766,Paraíso,South America,Brazil,Araguaia,Tocantins,14.00,,-16.6213890000,-52.1455560000,P,,,,,22,,,,
Mar-15,767,Jorge Mikitchuk,South America,Brazil,Jequitinhonha,Uruguay - Brazil[comma] South Atlantic Coast,10.70,,-16.6114920000,-42.9300500000,P,,,,,22,,,,
Mar-15,768,Grão Mogol,South America,Brazil,Jequitinhonha,Uruguay - Brazil[comma] South Atlantic Coast,28.00,,-16.5952780000,-42.8516670000,P,,,,,22,,,,
Mar-15,769,Foz Do Paraíso,South America,Brazil,Araguaia,Tocantins,28.00,,-16.5875000000,-52.2738890000,P,,,,,22,,,,
Mar-15,770,Fazenda Olaria,South America,Brazil,Jequitinhonha,Uruguay - Brazil[comma] South Atlantic Coast,7.50,,-16.5822220000,-42.8588890000,P,,,,,22,,,,
Mar-15,771,Peixe,South America,Brazil,Araguaia,Tocantins,12.00,,-16.5405560000,-52.4383330000,P,,,,,22,,,,
Mar-15,772,Tamboril,South America,Brazil,Verde,Tocantins,22.00,,-16.5327780000,-51.4727780000,P,,,,,22,,,,
Mar-15,773,Rênic,South America,Brazil,Verde,Tocantins,11.00,,-16.4904490000,-51.4200730000,P,,,,,22,,,,
Mar-15,774,Caiapó 4,South America,Brazil,Verde,Tocantins,6.40,,-16.4799720000,-51.3520540000,P,,,,,22,,,,
Mar-15,775,Mantovilis,South America,Brazil,Itiquira,La Plata,5.20,,-16.4526810000,-55.3171590000,P,,,,,22,,,,
Mar-15,776,Santo Antônio Do Caiapó,South America,Brazil,Araguaia,Tocantins,21.00,,-16.4433330000,-51.3913890000,U,,,,,22,,,,
Mar-15,777,Mutum I,South America,Brazil,Itiquira,La Plata,4.00,,-16.4394440000,-55.3027780000,P,,,,,22,,,,
Mar-15,778,Santo André,South America,Brazil,São Francisco,Sao Francisco,7.50,,-16.4109070000,-45.9163020000,P,,,,,22,,,,
Mar-15,779,Pau Ferro,South America,Brazil,Jequitinhonha,Uruguay - Brazil[comma] South Atlantic Coast,2.09,,-16.4000030000,-39.6333360000,P,,,,,22,,,,
Mar-15,780,Jacaré (Caiapó 6),South America,Brazil,Araguaia,Tocantins,11.50,,-16.3705780000,-51.4173140000,P,,,,,22,,,,
Mar-15,781,Canta Galo,South America,Brazil,Jequitinhonha,Uruguay - Brazil[comma] South Atlantic Coast,4.80,,-16.3560160000,-39.7454330000,P,,,,,22,,,,
Mar-15,782,Rancho Queimado I,South America,Brazil,Itiquira,La Plata,5.00,,-16.3242000000,-55.3564000000,P,,,,,22,,,,
Mar-15,783,Europa,South America,Brazil,Itiquira,La Plata,4.50,,-16.3194440000,-55.0888890000,P,,,,,22,,,,
Mar-15,784,Santo Antônio,South America,Brazil,Piquiri,La Plata,15.00,,-17.4762700000,-54.3732100000,P,,,,,22,,,,
Mar-15,785,Mata Velha,South America,Brazil,Corumba,Sao Francisco,24.00,,-16.1948820000,-47.1665160000,P,,,,,22,,,,
Mar-15,788,Água Branca,South America,Brazil,Itiquira,La Plata,10.00,,-16.1016670000,-54.9761110000,P,,,,,22,,,,
Mar-15,789,Água Brava,South America,Brazil,Itiquira,La Plata,13.05,,-16.0924580000,-55.0202460000,P,,,,,22,,,,
Mar-15,790,Água Prata,South America,Brazil,Itiquira,La Plata,13.30,,-16.0944650000,-55.0621570000,P,,,,,22,,,,
Mar-15,791,Água Clara,South America,Brazil,Itiquira,La Plata,4.00,,-16.0906220000,-55.0765700000,P,,,,,22,,,,
Mar-15,792,Jaciara,South America,Brazil,Itiquira,La Plata,19.00,,-16.0274600000,-54.9441770000,P,,,,,22,,,,
Mar-15,793,Buriti,South America,Brazil,Itiquira,La Plata,1.00,,-16.0180560000,-55.1402780000,P,,,,,22,,,,
Mar-15,794,Jatobá,South America,Brazil,Itiquira,La Plata,2.00,,-16.0113890000,-55.1344440000,P,,,,,22,,,,
Mar-15,795,Embaúba,South America,Brazil,Itiquira,La Plata,3.30,,-15.9812010000,-55.0812390000,P,,,,,22,,,,
Mar-15,796,Mangaba,South America,Brazil,Itiquira,La Plata,2.30,,-15.9812500000,-55.0500000000,P,,,,,22,,,,
Mar-15,797,Mestre,South America,Brazil,Cuiaba,La Plata,2.00,,-15.9770833330,-55.3608000000,U,,,,,22,,,,
Mar-15,798,Cambará,South America,Brazil,Itiquira,La Plata,2.70,,-15.9708330000,-55.0852780000,P,,,,,22,,,,
Mar-15,799,Fogos,South America,Brazil,São Francisco,Sao Francisco,16.70,,-15.9588890000,-46.4138890000,P,,,,,22,,,,
Mar-15,800,Bebedouro,South America,Brazil,São Francisco,Sao Francisco,16.02,,-15.9350000000,-46.4416670000,P,,,,,22,,,,
Mar-15,801,São Tadeu Ii,South America,Brazil,Cuiaba,La Plata,3.40,,-15.7550000000,-55.5500000000,P,,,,,22,,,,
Mar-15,803,Mascote,South America,Brazil,Jequitinhonha,Uruguay - Brazil[comma] South Atlantic Coast,22.40,,-15.5702780000,-39.3083330000,P,,,,,22,,,,
Mar-15,804,Água Azul,South America,Brazil,Jequitinhonha,Uruguay - Brazil[comma] South Atlantic Coast,25.55,,-15.5561110000,-39.7347220000,P,,,,,22,,,,
Mar-15,805,Serra Grande,South America,Brazil,Corumba,Tocantins,9.00,,-15.4211110000,-48.5641670000,P,,,,,22,,,,
Mar-15,806,Bocaina,South America,Brazil,São Francisco,Sao Francisco,14.00,,-15.4058330000,-46.1944440000,P,,,,,22,,,,
Mar-15,807,Costa,South America,Brazil,São Francisco,Sao Francisco,19.00,,-15.3697000000,-46.1936000000,P,,,,,22,,,,
Mar-15,808,Ceres,South America,Brazil,Tocantins,Tocantins,26.00,,-15.3327430000,-49.5806940000,P,,,,,22,,,,
Mar-15,809,Piquete,South America,Brazil,Corumba,Tocantins,12.00,,-15.3322220000,-47.9633330000,P,,,,,22,,,,
Mar-15,810,Poldros,South America,Brazil,São Francisco,Sao Francisco,7.90,,-15.3276430000,-46.4068390000,P,,,,,22,,,,
Mar-15,811,Cupim,South America,Brazil,São Francisco,Sao Francisco,9.70,,-15.2711500000,-46.5059090000,P,,,,,22,,,,
Mar-15,812,Nova Xavantina - Revisão,South America,Brazil,Rio das Mortes,Tocantins,3.20,,-15.2213130000,-52.3451610000,P,,,,,22,,,,
Mar-15,813,Rialma,South America,Brazil,Tocantins,Tocantins,17.00,,-15.2159840000,-49.5525440000,P,,,,,22,,,,
Mar-15,814,Do Sal,South America,Brazil,Corumba,Tocantins,14.01,,-15.2108000000,-48.0203000000,P,,,,,22,,,,
Mar-15,815,Nova Guaporé,South America,Brazil,Guaporé,Amazon,13.00,,-15.2037410000,-59.0125730000,P,,,,,22,,,,
Mar-15,816,Serra Do Meio,South America,Brazil,São Francisco,Sao Francisco,5.30,,-15.1930560000,-46.3975000000,P,,,,,22,,,,
Mar-15,817,Palma,South America,Brazil,Corumba,Tocantins,27.00,,-15.1406000000,-48.1694000000,P,,,,,22,,,,
Mar-15,818,Muçungo,South America,Brazil,Corumba,Tocantins,9.99,,-15.1344000000,-48.0222000000,P,,,,,22,,,,
Mar-15,819,Cocal,South America,Brazil,Corumba,Tocantins,10.00,,-15.0866670000,-47.8925000000,P,,,,,22,,,,
Mar-15,820,Salto Vermelho I,South America,Brazil,Teles Pires,La Plata,13.70,,-15.0580560000,-58.0402780000,P,,,,,22,,,,
Mar-15,821,Tapirapuã,South America,Brazil,Teles Pires,La Plata,14.90,,-14.9705550000,-57.7474170000,P,,,,,22,,,,
Mar-15,822,Serra Do Divisor,South America,Brazil,Tocantins,Tocantins,6.10,,-14.9576760000,-46.7746590000,P,,,,,22,,,,
Mar-15,823,Usina Velha (Ex Usina Velha Ii),South America,Brazil,Teles Pires,La Plata,17.80,,-14.9134190000,-57.8086920000,P,,,,,22,,,,
Mar-15,824,Corredeira (Ex Usina Velha I),South America,Brazil,Teles Pires,La Plata,16.20,,-14.8788890000,-57.8183330000,P,,,,,22,,,,
Mar-15,826,Jubinha I,South America,Brazil,Teles Pires,La Plata,11.00,,-14.7224440000,-58.1849780000,P,,,,,22,,,,
Mar-15,827,Jubinha Ii,South America,Brazil,Teles Pires,La Plata,15.98,,-14.7225000000,-58.1300000000,P,,,,,22,,,,
Mar-15,828,Juba Iv,South America,Brazil,Teles Pires,La Plata,7.48,,-14.7331000000,-58.0983000000,P,,,,,22,,,,
Mar-15,829,Salto Maciel,South America,Brazil,Teles Pires,La Plata,17.00,,-14.6891670000,-57.8022220000,P,,,,,22,,,,
Mar-15,830,Juba Iii,South America,Brazil,Teles Pires,La Plata,6.20,,-14.6805220000,-58.1335860000,P,,,,,22,,,,
Mar-15,831,Paiaguás,South America,Brazil,Teles Pires,La Plata,23.00,,-14.6696720000,-57.7622540000,P,,,,,22,,,,
Mar-15,832,Catumbi,South America,Brazil,São Francisco,Sao Francisco,14.00,,-14.6533330000,-44.9822220000,P,,,,,22,,,,
Mar-15,833,Sepotuba,South America,Brazil,Teles Pires,La Plata,13.50,,-14.6429940000,-57.7481820000,P,,,,,22,,,,
Mar-15,834,Buritizinho,South America,Brazil,Tocantins,Tocantins,5.25,,-14.6197220000,-47.7725000000,P,,,,,22,,,,
Mar-15,835,Rio Do Sapo,South America,Brazil,Teles Pires,La Plata,4.10,,-14.6156690000,-57.7379000000,P,,,,,22,,,,
Mar-15,836,Lagoa Grande,South America,Brazil,Teles Pires,La Plata,2.53,,-14.5936110000,-57.7547220000,P,,,,,22,,,,
Mar-15,837,Ponte Estreita,South America,Brazil,Teles Pires,La Plata,2.10,,-14.5866670000,-57.7877780000,P,,,,,22,,,,
Mar-15,838,Gavião,South America,Brazil,São Francisco,Sao Francisco,22.00,,-14.5666670000,-44.8541670000,P,,,,,22,,,,
Mar-15,839,Vãozinho,South America,Brazil,Tocantins,Tocantins,10.00,,-14.4844440000,-47.8283330000,P,,,,,22,,,,
Mar-15,840,Dário Meira,South America,Brazil,Contas,Uruguay - Brazil[comma] South Atlantic Coast,8.20,,-14.4666790000,-39.5128610000,P,,,,,22,,,,
Mar-15,841,Vidal,South America,Brazil,Tocantins,Tocantins,6.30,,-14.4717640000,-46.4618070000,P,,,,,22,,,,
Mar-15,842,Alvorada,South America,Brazil,Tocantins,Tocantins,10.30,,-14.4716580000,-46.4552930000,P,,,,,22,,,,
Mar-15,843,Capivara - (Km 180),South America,Brazil,São Francisco,Sao Francisco,5.40,,-14.4635330000,-44.7368760000,P,,,,,22,,,,
Mar-15,844,Vermelho 1,South America,Brazil,Tocantins,Tocantins,7.80,,-14.4487290000,-46.3447160000,P,,,,,22,,,,
Mar-15,845,Capim Puba - (Km171[comma]6),South America,Brazil,São Francisco,Sao Francisco,10.00,,-14.4334920000,-44.6984580000,P,,,,,22,,,,
Mar-15,847,Salto Do Sapo Parecís,South America,Brazil,Teles Pires,La Plata,5.77,,-14.4063890000,-57.7738890000,P,,,,,22,,,,
Mar-15,848,Larguinha - (Km 154[comma]5),South America,Brazil,São Francisco,Sao Francisco,10.70,,-14.3963180000,-44.6519330000,P,,,,,22,,,,
Mar-15,850,Posses - (Km 142[comma]3),South America,Brazil,São Francisco,Sao Francisco,16.10,,-14.3500000000,-44.5833330000,P,,,,,22,,,,
Mar-15,851,Taboquinha,South America,Brazil,Contas,Uruguay - Brazil[comma] South Atlantic Coast,26.30,,-14.3463890000,-39.1827780000,P,,,,,22,,,,
Mar-15,852,Piracanjuba Eixo 3,South America,Brazil,Tocantins,Tocantins,4.00,,-14.3422220000,-46.2425000000,P,,,,,22,,,,
Mar-15,853,Maracanã,South America,Brazil,Teles Pires,La Plata,10.49,,-14.5040920000,-57.5893800000,U,,,,,22,,,,
Mar-15,854,Gongoji Montante,South America,Brazil,Contas,Uruguay - Brazil[comma] South Atlantic Coast,5.80,,-14.3330960000,-39.4961450000,P,,,,,22,,,,
Mar-15,855,Santana Ii,South America,Brazil,Cuiaba,La Plata,2.40,,-14.3380000000,-56.8250000000,P,,,,,22,,,,
Mar-15,856,Gongoji Jusante,South America,Brazil,Contas,Uruguay - Brazil[comma] South Atlantic Coast,6.40,,-14.3216670000,-39.4572220000,P,,,,,22,,,,
Mar-15,857,Serrinha,South America,Brazil,Cuiaba,Amazon,13.08,,-14.2419440000,-56.0202780000,P,,,,,22,,,,
Mar-15,858,Colinas,South America,Brazil,Tocantins,Tocantins,25.50,,-14.2227780000,-48.0516670000,P,,,,,22,,,,
Mar-15,859,Distância,South America,Brazil,Cuiaba,Amazon,16.00,,-14.1905560000,-56.0427780000,P,,,,,22,,,,
Mar-15,860,Paranátinga I,South America,Brazil,Culuene,Amazon,22.30,,-14.0291670000,-53.3555560000,P,,,,,22,,,,
Mar-15,861,Araras,South America,Brazil,Tocantins,Tocantins,3.40,,-13.8433330000,-47.3450000000,P,,,,,22,,,,
Mar-15,862,Presente De Deus (Juína Ii),South America,Brazil,Juruena,Amazon,13.40,,-13.8330560000,-59.4358330000,P,,,,,22,,,,
Mar-15,863,Sumidouro,South America,Brazil,Cuiaba,Amazon,27.43,,-13.8338890000,-56.6936110000,P,,,,,22,,,,
